[
    {
        "address": "浦东新区台儿庄路579弄",
        "comprehension": 100,
        "confidence": 50,
        "district": "浦东新区",
        "location": {
            "lat": 31.26203937700827,
            "lng": 121.60291618759797
        },
        "precise": 0
    },
    {
        "address": "浦东新区长岛路85弄",
        "comprehension": 100,
        "confidence": 75,
        "district": "浦东新区",
        "location": {
            "lat": 31.274604163505405,
            "lng": 121.58376143954762
        },
        "precise": 1
    },
    {
        "address": "浦东新区",
        "comprehension": 100,
        "confidence": 20,
        "district": "浦东新区",
        "location": {
            "lat": 31.227348292436346,
            "lng": 121.55045460683195
        },
        "precise": 0
    },
    {
        "address": "黄浦区",
        "comprehension": 100,
        "confidence": 20,
        "district": "黄浦区",
        "location": {
            "lat": 31.23724715206362,
            "lng": 121.49158559252436
        },
        "precise": 0
    },
    {
        "address": "静安区平型关路300弄",
        "comprehension": 100,
        "confidence": 80,
        "district": "静安区",
        "location": {
            "lat": 31.27688072373114,
            "lng": 121.47035315365997
        },
        "precise": 1
    },
    {
        "address": "静安区沪太路1329弄",
        "comprehension": 100,
        "confidence": 50,
        "district": "静安区",
        "location": {
            "lat": 31.288211697540028,
            "lng": 121.43027983469041
        },
        "precise": 0
    },
    {
        "address": "静安区",
        "comprehension": 100,
        "confidence": 20,
        "district": "静安区",
        "location": {
            "lat": 31.233844930401652,
            "lng": 121.45343177276851
        },
        "precise": 0
    },
    {
        "address": "徐汇区漕溪北路1200号",
        "comprehension": 100,
        "confidence": 80,
        "district": "徐汇区",
        "location": {
            "lat": 31.18852542583787,
            "lng": 121.4423199132712
        },
        "precise": 1
    },
    {
        "address": "徐汇区梅陇三村",
        "comprehension": 100,
        "confidence": 50,
        "district": "徐汇区",
        "location": {
            "lat": 31.14370192010982,
            "lng": 121.42363237391658
        },
        "precise": 0
    },
    {
        "address": "徐汇区华泾路880弄",
        "comprehension": 100,
        "confidence": 50,
        "district": "徐汇区",
        "location": {
            "lat": 31.125287309951997,
            "lng": 121.45447120207412
        },
        "precise": 0
    },
    {
        "address": "徐汇区宜山路250弄",
        "comprehension": 100,
        "confidence": 80,
        "district": "徐汇区",
        "location": {
            "lat": 31.19576765999197,
            "lng": 121.43640079860485
        },
        "precise": 1
    },
    {
        "address": "徐汇区",
        "comprehension": 100,
        "confidence": 20,
        "district": "徐汇区",
        "location": {
            "lat": 31.194556772822725,
            "lng": 121.44339635276381
        },
        "precise": 0
    },
    {
        "address": "长宁区延安西路649弄",
        "comprehension": 100,
        "confidence": 80,
        "district": "长宁区",
        "location": {
            "lat": 31.22156162976682,
            "lng": 121.43589406446668
        },
        "precise": 1
    },
    {
        "address": "长宁区",
        "comprehension": 100,
        "confidence": 20,
        "district": "长宁区",
        "location": {
            "lat": 31.226847968225428,
            "lng": 121.43045437545099
        },
        "precise": 0
    },
    {
        "address": "普陀区真南路1051弄",
        "comprehension": 100,
        "confidence": 80,
        "district": "普陀区",
        "location": {
            "lat": 31.27528192917823,
            "lng": 121.38529269475072
        },
        "precise": 1
    },
    {
        "address": "普陀区石泉东路168弄",
        "comprehension": 100,
        "confidence": 50,
        "district": "普陀区",
        "location": {
            "lat": 31.26187654864458,
            "lng": 121.43948081870691
        },
        "precise": 0
    },
    {
        "address": "普陀区",
        "comprehension": 100,
        "confidence": 20,
        "district": "普陀区",
        "location": {
            "lat": 31.254973368279597,
            "lng": 121.40356934916508
        },
        "precise": 0
    },
    {
        "address": "虹口区",
        "comprehension": 100,
        "confidence": 20,
        "district": "虹口区",
        "location": {
            "lat": 31.269746698931357,
            "lng": 121.51158645453457
        },
        "precise": 0
    },
    {
        "address": "杨浦区",
        "comprehension": 100,
        "confidence": 20,
        "district": "杨浦区",
        "location": {
            "lat": 31.265524144657057,
            "lng": 121.53251993732523
        },
        "precise": 0
    },
    {
        "address": "宝山区月浦六村",
        "comprehension": 100,
        "confidence": 70,
        "district": "宝山区",
        "location": {
            "lat": 31.424595878882815,
            "lng": 121.42834299818036
        },
        "precise": 1
    },
    {
        "address": "宝山区罗东路50弄",
        "comprehension": 100,
        "confidence": 80,
        "district": "宝山区",
        "location": {
            "lat": 31.423158159322444,
            "lng": 121.3835357888343
        },
        "precise": 1
    },
    {
        "address": "宝山区泗塘一村",
        "comprehension": 100,
        "confidence": 70,
        "district": "宝山区",
        "location": {
            "lat": 31.3447274291945,
            "lng": 121.46039983877887
        },
        "precise": 1
    },
    {
        "address": "宝山区鹤林路58弄",
        "comprehension": 100,
        "confidence": 80,
        "district": "宝山区",
        "location": {
            "lat": 31.4552958101169,
            "lng": 121.40996016405471
        },
        "precise": 1
    },
    {
        "address": "宝山区真华路999弄",
        "comprehension": 100,
        "confidence": 80,
        "district": "宝山区",
        "location": {
            "lat": 31.280233389052203,
            "lng": 121.41731575906206
        },
        "precise": 1
    },
    {
        "address": "宝山区菊太路1399弄",
        "comprehension": 100,
        "confidence": 75,
        "district": "宝山区",
        "location": {
            "lat": 31.351930581232537,
            "lng": 121.36135069697657
        },
        "precise": 1
    },
    {
        "address": "宝山区友谊路1869弄",
        "comprehension": 100,
        "confidence": 75,
        "district": "宝山区",
        "location": {
            "lat": 31.401951926709412,
            "lng": 121.45429702063572
        },
        "precise": 1
    },
    {
        "address": "宝山区德都路399弄",
        "comprehension": 100,
        "confidence": 70,
        "district": "宝山区",
        "location": {
            "lat": 31.42594167453572,
            "lng": 121.43004690407167
        },
        "precise": 1
    },
    {
        "address": "宝山区美丹路1033弄",
        "comprehension": 100,
        "confidence": 50,
        "district": "宝山区",
        "location": {
            "lat": 31.39839273403355,
            "lng": 121.343244540948
        },
        "precise": 0
    },
    {
        "address": "宝山区",
        "comprehension": 100,
        "confidence": 20,
        "district": "宝山区",
        "location": {
            "lat": 31.41027947347614,
            "lng": 121.4965630135246
        },
        "precise": 0
    },
    {
        "address": "闵行区虹梅南路1578号",
        "comprehension": 100,
        "confidence": 80,
        "district": "闵行区",
        "location": {
            "lat": 31.122749396266173,
            "lng": 121.4341264687147
        },
        "precise": 1
    },
    {
        "address": "闵行区罗秀路1377号",
        "comprehension": 100,
        "confidence": 80,
        "district": "闵行区",
        "location": {
            "lat": 31.13456816838341,
            "lng": 121.42403499444615
        },
        "precise": 1
    },
    {
        "address": "闵行区华茂路1036号",
        "comprehension": 100,
        "confidence": 80,
        "district": "闵行区",
        "location": {
            "lat": 31.147342377053093,
            "lng": 121.35623844031929
        },
        "precise": 1
    },
    {
        "address": "闵行区普乐路333弄",
        "comprehension": 100,
        "confidence": 50,
        "district": "闵行区",
        "location": {
            "lat": 31.119885109199203,
            "lng": 121.43125898769628
        },
        "precise": 0
    },
    {
        "address": "闵行区龙吴路4221号",
        "comprehension": 100,
        "confidence": 80,
        "district": "闵行区",
        "location": {
            "lat": 31.09240829729388,
            "lng": 121.46529569363881
        },
        "precise": 1
    },
    {
        "address": "闵行区",
        "comprehension": 100,
        "confidence": 20,
        "district": "闵行区",
        "location": {
            "lat": 31.118842580087428,
            "lng": 121.38861193361008
        },
        "precise": 0
    },
    {
        "address": "嘉定区沪宜公路3066弄",
        "comprehension": 100,
        "confidence": 50,
        "district": "嘉定区",
        "location": {
            "lat": 31.37038455428296,
            "lng": 121.26850399539848
        },
        "precise": 0
    },
    {
        "address": "嘉定区康年路208弄",
        "comprehension": 100,
        "confidence": 80,
        "district": "嘉定区",
        "location": {
            "lat": 31.32526300675237,
            "lng": 121.28048695480561
        },
        "precise": 1
    },
    {
        "address": "嘉定区徐行和桥村",
        "comprehension": 100,
        "confidence": 50,
        "district": "嘉定区",
        "location": {
            "lat": 31.42342416569669,
            "lng": 121.33578887470684
        },
        "precise": 0
    },
    {
        "address": "嘉定区宝乐路58弄",
        "comprehension": 100,
        "confidence": 75,
        "district": "嘉定区",
        "location": {
            "lat": 31.33692274329431,
            "lng": 121.29552987598836
        },
        "precise": 1
    },
    {
        "address": "嘉定区城中路20号",
        "comprehension": 100,
        "confidence": 80,
        "district": "嘉定区",
        "location": {
            "lat": 31.382265549048565,
            "lng": 121.25843749402313
        },
        "precise": 1
    },
    {
        "address": "嘉定区宝安公路3705弄",
        "comprehension": 100,
        "confidence": 80,
        "district": "嘉定区",
        "location": {
            "lat": 31.34530537957466,
            "lng": 121.31343876412694
        },
        "precise": 1
    },
    {
        "address": "嘉定区",
        "comprehension": 100,
        "confidence": 20,
        "district": "嘉定区",
        "location": {
            "lat": 31.3801553396772,
            "lng": 121.27259505835202
        },
        "precise": 0
    },
    {
        "address": "金山区",
        "comprehension": 100,
        "confidence": 20,
        "district": "金山区",
        "location": {
            "lat": 30.747852376570318,
            "lng": 121.34848004512126
        },
        "precise": 0
    },
    {
        "address": "松江区洞坤路168弄",
        "comprehension": 57,
        "confidence": 20,
        "district": "松江区",
        "location": {
            "lat": 31.037135176464492,
            "lng": 121.23447959624146
        },
        "precise": 0
    },
    {
        "address": "松江区陆家圈路63弄",
        "comprehension": 57,
        "confidence": 30,
        "district": "松江区",
        "location": {
            "lat": 31.092005745792893,
            "lng": 121.30226608934659
        },
        "precise": 0
    },
    {
        "address": "松江区南期昌路458弄",
        "comprehension": 100,
        "confidence": 30,
        "district": "松江区",
        "location": {
            "lat": 31.03133601058928,
            "lng": 121.23278467340522
        },
        "precise": 0
    },
    {
        "address": "松江区九亭镇庄家村",
        "comprehension": 100,
        "confidence": 50,
        "district": "松江区",
        "location": {
            "lat": 31.137603398022964,
            "lng": 121.32685792132665
        },
        "precise": 0
    },
    {
        "address": "松江区沪亭北路618弄",
        "comprehension": 100,
        "confidence": 50,
        "district": "松江区",
        "location": {
            "lat": 31.154279221671437,
            "lng": 121.32251012265836
        },
        "precise": 0
    },
    {
        "address": "松江区淀浦河路399弄",
        "comprehension": 100,
        "confidence": 75,
        "district": "松江区",
        "location": {
            "lat": 31.132750646412344,
            "lng": 121.33834284710227
        },
        "precise": 1
    },
    {
        "address": "松江区沪亭北路338弄",
        "comprehension": 100,
        "confidence": 50,
        "district": "松江区",
        "location": {
            "lat": 31.150787144170913,
            "lng": 121.32469048979218
        },
        "precise": 0
    },
    {
        "address": "松江区涞坊路333弄",
        "comprehension": 100,
        "confidence": 80,
        "district": "松江区",
        "location": {
            "lat": 31.159805445558884,
            "lng": 121.32368717236807
        },
        "precise": 1
    },
    {
        "address": "松江区洞宁路655弄",
        "comprehension": 100,
        "confidence": 50,
        "district": "松江区",
        "location": {
            "lat": 31.08063834727173,
            "lng": 121.28266129023574
        },
        "precise": 0
    },
    {
        "address": "松江区方塔北路618号",
        "comprehension": 100,
        "confidence": 80,
        "district": "松江区",
        "location": {
            "lat": 31.02738037353822,
            "lng": 121.25475309397395
        },
        "precise": 1
    },
    {
        "address": "松江区博安路32弄",
        "comprehension": 100,
        "confidence": 50,
        "district": "松江区",
        "location": {
            "lat": 31.143261495294794,
            "lng": 121.31800062899826
        },
        "precise": 0
    },
    {
        "address": "松江区",
        "comprehension": 100,
        "confidence": 20,
        "district": "松江区",
        "location": {
            "lat": 31.037135176464492,
            "lng": 121.23447959624146
        },
        "precise": 0
    },
    {
        "address": "青浦区赵巷和睦村",
        "comprehension": 100,
        "confidence": 50,
        "district": "青浦区",
        "location": {
            "lat": 31.16347780059512,
            "lng": 121.2463004882778
        },
        "precise": 0
    },
    {
        "address": "青浦区徐泾前明村",
        "comprehension": 100,
        "confidence": 50,
        "district": "青浦区",
        "location": {
            "lat": 31.161795721153716,
            "lng": 121.27092951010597
        },
        "precise": 0
    },
    {
        "address": "青浦区徐泾镇杨巷西区",
        "comprehension": 100,
        "confidence": 70,
        "district": "青浦区",
        "location": {
            "lat": 31.17970352081271,
            "lng": 121.27300441617292
        },
        "precise": 1
    },
    {
        "address": "青浦区",
        "comprehension": 100,
        "confidence": 20,
        "district": "青浦区",
        "location": {
            "lat": 31.155454317980737,
            "lng": 121.13055310467274
        },
        "precise": 0
    },
    {
        "address": "奉贤区",
        "comprehension": 100,
        "confidence": 20,
        "district": "奉贤区",
        "location": {
            "lat": 30.923720110285377,
            "lng": 121.48050373643107
        },
        "precise": 0
    }
]