[
    {
        "address": "浦东新区国展路1756号工地生活区",
        "comprehension": 89,
        "confidence": 80,
        "district": "浦东新区",
        "location": {
            "lat": 31.189040953165733,
            "lng": 121.49706758032497
        },
        "precise": 0
    },
    {
        "address": "浦东新区康安路御北路交界口工地生活区",
        "comprehension": 24,
        "confidence": 30,
        "district": "浦东新区",
        "location": {
            "lat": 31.16393929723239,
            "lng": 121.56378599958333
        },
        "precise": 0
    },
    {
        "address": "浦东新区环龙路439弄",
        "comprehension": 100,
        "confidence": 80,
        "district": "浦东新区",
        "location": {
            "lat": 31.207919914797163,
            "lng": 121.5316519945415
        },
        "precise": 1
    },
    {
        "address": "浦东新区华夏二路1455弄",
        "comprehension": 100,
        "confidence": 80,
        "district": "浦东新区",
        "location": {
            "lat": 31.17862187802573,
            "lng": 121.69950702654167
        },
        "precise": 1
    },
    {
        "address": "浦东新区潍坊五村",
        "comprehension": 100,
        "confidence": 50,
        "district": "浦东新区",
        "location": {
            "lat": 31.225523227108205,
            "lng": 121.53090801791814
        },
        "precise": 0
    },
    {
        "address": "浦东新区灵岩南路144号",
        "comprehension": 100,
        "confidence": 80,
        "district": "浦东新区",
        "location": {
            "lat": 31.165827284606216,
            "lng": 121.50050792217166
        },
        "precise": 1
    },
    {
        "address": "浦东新区洪山路1658弄",
        "comprehension": 100,
        "confidence": 80,
        "district": "浦东新区",
        "location": {
            "lat": 31.158361401298,
            "lng": 121.51418318627226
        },
        "precise": 1
    },
    {
        "address": "浦东新区富航路105弄",
        "comprehension": 100,
        "confidence": 80,
        "district": "浦东新区",
        "location": {
            "lat": 31.038632987521396,
            "lng": 121.60314714194459
        },
        "precise": 1
    },
    {
        "address": "浦东新区航鸣路200弄",
        "comprehension": 100,
        "confidence": 70,
        "district": "浦东新区",
        "location": {
            "lat": 31.027055758234347,
            "lng": 121.60906095660842
        },
        "precise": 1
    },
    {
        "address": "浦东新区浦电路48弄",
        "comprehension": 100,
        "confidence": 80,
        "district": "浦东新区",
        "location": {
            "lat": 31.224774384963634,
            "lng": 121.52301829045456
        },
        "precise": 1
    },
    {
        "address": "浦东新区浦城路580弄",
        "comprehension": 100,
        "confidence": 75,
        "district": "浦东新区",
        "location": {
            "lat": 31.230158967011022,
            "lng": 121.52108055563897
        },
        "precise": 1
    },
    {
        "address": "浦东新区栖山路1855号",
        "comprehension": 100,
        "confidence": 80,
        "district": "浦东新区",
        "location": {
            "lat": 31.26719232371363,
            "lng": 121.57779749943631
        },
        "precise": 1
    },
    {
        "address": "浦东新区利津路729弄",
        "comprehension": 100,
        "confidence": 80,
        "district": "浦东新区",
        "location": {
            "lat": 31.280678570870514,
            "lng": 121.59658295409153
        },
        "precise": 1
    },
    {
        "address": "浦东新区浦东大道2554号",
        "comprehension": 100,
        "confidence": 80,
        "district": "浦东新区",
        "location": {
            "lat": 31.265341027434445,
            "lng": 121.56949850398239
        },
        "precise": 1
    },
    {
        "address": "浦东新区鹤鸣村",
        "comprehension": 100,
        "confidence": 50,
        "district": "浦东新区",
        "location": {
            "lat": 31.050200132685855,
            "lng": 121.60056208817852
        },
        "precise": 0
    },
    {
        "address": "浦东新区潍坊八村",
        "comprehension": 100,
        "confidence": 70,
        "district": "浦东新区",
        "location": {
            "lat": 31.225519444312425,
            "lng": 121.5349700656037
        },
        "precise": 1
    },
    {
        "address": "浦东新区百花新村",
        "comprehension": 100,
        "confidence": 70,
        "district": "浦东新区",
        "location": {
            "lat": 31.11683485392233,
            "lng": 121.59203546210837
        },
        "precise": 1
    },
    {
        "address": "浦东新区观海路999弄",
        "comprehension": 100,
        "confidence": 70,
        "district": "浦东新区",
        "location": {
            "lat": 31.061084150391313,
            "lng": 121.78875107387198
        },
        "precise": 1
    },
    {
        "address": "浦东新区三三公路5020弄",
        "comprehension": 100,
        "confidence": 50,
        "district": "浦东新区",
        "location": {
            "lat": 30.959156355151052,
            "lng": 121.9130469520852
        },
        "precise": 0
    },
    {
        "address": "浦东新区浦东大道2567弄",
        "comprehension": 100,
        "confidence": 80,
        "district": "浦东新区",
        "location": {
            "lat": 31.26674800360542,
            "lng": 121.56905069868566
        },
        "precise": 1
    },
    {
        "address": "浦东新区义泓村",
        "comprehension": 100,
        "confidence": 50,
        "district": "浦东新区",
        "location": {
            "lat": 31.081963820725456,
            "lng": 121.84381262027553
        },
        "precise": 0
    },
    {
        "address": "浦东新区新安村",
        "comprehension": 100,
        "confidence": 50,
        "district": "浦东新区",
        "location": {
            "lat": 31.029332219409053,
            "lng": 121.68776015487933
        },
        "precise": 0
    },
    {
        "address": "浦东新区博华路999弄",
        "comprehension": 100,
        "confidence": 80,
        "district": "浦东新区",
        "location": {
            "lat": 31.17680629046571,
            "lng": 121.55711392523853
        },
        "precise": 1
    },
    {
        "address": "浦东新区妙境路124弄",
        "comprehension": 100,
        "confidence": 80,
        "district": "浦东新区",
        "location": {
            "lat": 31.202324712849943,
            "lng": 121.69510892276482
        },
        "precise": 1
    },
    {
        "address": "浦东新区新行路高行家园",
        "comprehension": 100,
        "confidence": 70,
        "district": "浦东新区",
        "location": {
            "lat": 31.30076702350573,
            "lng": 121.62008253640201
        },
        "precise": 1
    },
    {
        "address": "浦东新区池月路848弄",
        "comprehension": 100,
        "confidence": 80,
        "district": "浦东新区",
        "location": {
            "lat": 30.915423615348644,
            "lng": 121.81961442576996
        },
        "precise": 1
    },
    {
        "address": "浦东新区拱极路2626弄",
        "comprehension": 100,
        "confidence": 80,
        "district": "浦东新区",
        "location": {
            "lat": 31.059723736279423,
            "lng": 121.77962491870447
        },
        "precise": 1
    },
    {
        "address": "浦东新区新浦路251弄",
        "comprehension": 100,
        "confidence": 80,
        "district": "浦东新区",
        "location": {
            "lat": 31.17422589586613,
            "lng": 121.54134201607764
        },
        "precise": 1
    },
    {
        "address": "浦东新区南新村吴家宅",
        "comprehension": 100,
        "confidence": 50,
        "district": "浦东新区",
        "location": {
            "lat": 31.360191454559764,
            "lng": 121.52662561589096
        },
        "precise": 0
    },
    {
        "address": "浦东新区拱北路278弄",
        "comprehension": 100,
        "confidence": 80,
        "district": "浦东新区",
        "location": {
            "lat": 31.063927060106995,
            "lng": 121.78049225623649
        },
        "precise": 1
    },
    {
        "address": "浦东新区行泰路150弄",
        "comprehension": 100,
        "confidence": 75,
        "district": "浦东新区",
        "location": {
            "lat": 31.295245646775623,
            "lng": 121.61433778283515
        },
        "precise": 1
    },
    {
        "address": "浦东新区拱为路2600弄",
        "comprehension": 100,
        "confidence": 70,
        "district": "浦东新区",
        "location": {
            "lat": 31.063557763042446,
            "lng": 121.74541825335946
        },
        "precise": 1
    },
    {
        "address": "浦东新区通济路328弄",
        "comprehension": 100,
        "confidence": 70,
        "district": "浦东新区",
        "location": {
            "lat": 31.05774885424886,
            "lng": 121.7525324736763
        },
        "precise": 1
    },
    {
        "address": "浦东新区凌兆路99弄",
        "comprehension": 100,
        "confidence": 80,
        "district": "浦东新区",
        "location": {
            "lat": 31.147618905696845,
            "lng": 121.49790094975117
        },
        "precise": 1
    },
    {
        "address": "浦东新区双桥路1108弄",
        "comprehension": 100,
        "confidence": 70,
        "district": "浦东新区",
        "location": {
            "lat": 31.288726891481563,
            "lng": 121.62054902645333
        },
        "precise": 1
    },
    {
        "address": "浦东新区鹤驰路99弄",
        "comprehension": 100,
        "confidence": 80,
        "district": "浦东新区",
        "location": {
            "lat": 31.084967271555595,
            "lng": 121.59974166575626
        },
        "precise": 1
    },
    {
        "address": "浦东新区西北新邨",
        "comprehension": 100,
        "confidence": 70,
        "district": "浦东新区",
        "location": {
            "lat": 31.05536596351949,
            "lng": 121.75830821878324
        },
        "precise": 1
    },
    {
        "address": "浦东新区联勤村冯桥队张家宅",
        "comprehension": 100,
        "confidence": 70,
        "district": "浦东新区",
        "location": {
            "lat": 31.171212397581485,
            "lng": 121.55744791522713
        },
        "precise": 1
    },
    {
        "address": "浦东新区联勤村李家队李家宅",
        "comprehension": 24,
        "confidence": 50,
        "district": "浦东新区",
        "location": {
            "lat": 31.173231011079945,
            "lng": 121.55718596934042
        },
        "precise": 0
    },
    {
        "address": "浦东新区康花新村",
        "comprehension": 100,
        "confidence": 70,
        "district": "浦东新区",
        "location": {
            "lat": 31.15510696691525,
            "lng": 121.5512453851724
        },
        "precise": 1
    },
    {
        "address": "浦东新区鹏飞路411弄",
        "comprehension": 100,
        "confidence": 70,
        "district": "浦东新区",
        "location": {
            "lat": 31.177011748832836,
            "lng": 121.56205891740986
        },
        "precise": 1
    },
    {
        "address": "浦东新区金桥路530弄",
        "comprehension": 100,
        "confidence": 70,
        "district": "浦东新区",
        "location": {
            "lat": 31.267272884479524,
            "lng": 121.58072804150152
        },
        "precise": 1
    },
    {
        "address": "浦东新区玉盘北路288弄",
        "comprehension": 100,
        "confidence": 50,
        "district": "浦东新区",
        "location": {
            "lat": 31.23195561150909,
            "lng": 121.67884662862603
        },
        "precise": 0
    },
    {
        "address": "浦东新区药师新村",
        "comprehension": 100,
        "confidence": 70,
        "district": "浦东新区",
        "location": {
            "lat": 31.2090166621391,
            "lng": 121.68918414877375
        },
        "precise": 1
    },
    {
        "address": "浦东新区金桥路301弄",
        "comprehension": 100,
        "confidence": 80,
        "district": "浦东新区",
        "location": {
            "lat": 31.27287901780519,
            "lng": 121.57861711338361
        },
        "precise": 1
    },
    {
        "address": "浦东新区长岛路728弄",
        "comprehension": 100,
        "confidence": 75,
        "district": "浦东新区",
        "location": {
            "lat": 31.26588698269551,
            "lng": 121.592831001468
        },
        "precise": 1
    },
    {
        "address": "浦东新区巨峰路399弄",
        "comprehension": 100,
        "confidence": 50,
        "district": "浦东新区",
        "location": {
            "lat": 31.28627525882646,
            "lng": 121.60188313626149
        },
        "precise": 0
    },
    {
        "address": "浦东新区银峰路676弄",
        "comprehension": 100,
        "confidence": 70,
        "district": "浦东新区",
        "location": {
            "lat": 31.271371900495815,
            "lng": 121.6971890390037
        },
        "precise": 1
    },
    {
        "address": "浦东新区高宝路68弄",
        "comprehension": 100,
        "confidence": 80,
        "district": "浦东新区",
        "location": {
            "lat": 31.29737066259963,
            "lng": 121.62729152795012
        },
        "precise": 1
    },
    {
        "address": "浦东新区鹏飞路28弄",
        "comprehension": 100,
        "confidence": 75,
        "district": "浦东新区",
        "location": {
            "lat": 31.18091954304651,
            "lng": 121.56187224952488
        },
        "precise": 1
    },
    {
        "address": "浦东新区罗山路108弄",
        "comprehension": 100,
        "confidence": 75,
        "district": "浦东新区",
        "location": {
            "lat": 31.254641589752865,
            "lng": 121.55887945488784
        },
        "precise": 1
    },
    {
        "address": "浦东新区张杨路1515弄",
        "comprehension": 100,
        "confidence": 80,
        "district": "浦东新区",
        "location": {
            "lat": 31.240309161544037,
            "lng": 121.5421495927311
        },
        "precise": 1
    },
    {
        "address": "浦东新区申大公寓",
        "comprehension": 100,
        "confidence": 70,
        "district": "浦东新区",
        "location": {
            "lat": 31.259850816608612,
            "lng": 121.59660074054064
        },
        "precise": 1
    },
    {
        "address": "浦东新区浦东大道580号",
        "comprehension": 100,
        "confidence": 80,
        "district": "浦东新区",
        "location": {
            "lat": 31.24609806080326,
            "lng": 121.52850891339264
        },
        "precise": 1
    },
    {
        "address": "浦东新区云山路1039弄",
        "comprehension": 100,
        "confidence": 75,
        "district": "浦东新区",
        "location": {
            "lat": 31.256014461431107,
            "lng": 121.57896466778543
        },
        "precise": 1
    },
    {
        "address": "浦东新区临沂一村",
        "comprehension": 100,
        "confidence": 70,
        "district": "浦东新区",
        "location": {
            "lat": 31.20482333331625,
            "lng": 121.51940440738791
        },
        "precise": 1
    },
    {
        "address": "浦东新区芳芯路251弄",
        "comprehension": 100,
        "confidence": 80,
        "district": "浦东新区",
        "location": {
            "lat": 31.19846669279656,
            "lng": 121.5630040246369
        },
        "precise": 1
    },
    {
        "address": "浦东新区中科路2635弄",
        "comprehension": 100,
        "confidence": 80,
        "district": "浦东新区",
        "location": {
            "lat": 31.196928876820458,
            "lng": 121.644202219006
        },
        "precise": 1
    },
    {
        "address": "浦东新区顺和路126弄",
        "comprehension": 100,
        "confidence": 70,
        "district": "浦东新区",
        "location": {
            "lat": 31.191615827234507,
            "lng": 121.63371207675215
        },
        "precise": 1
    },
    {
        "address": "浦东新区梅山苑",
        "comprehension": 100,
        "confidence": 70,
        "district": "浦东新区",
        "location": {
            "lat": 31.166074867693577,
            "lng": 121.49416498696571
        },
        "precise": 1
    },
    {
        "address": "浦东新区浦建路60弄",
        "comprehension": 100,
        "confidence": 80,
        "district": "浦东新区",
        "location": {
            "lat": 31.213159230587877,
            "lng": 121.52445369282894
        },
        "precise": 1
    },
    {
        "address": "浦东新区南门大街70弄",
        "comprehension": 100,
        "confidence": 80,
        "district": "浦东新区",
        "location": {
            "lat": 31.049802582763984,
            "lng": 121.76342757205406
        },
        "precise": 1
    },
    {
        "address": "浦东新区华鹏路390弄",
        "comprehension": 100,
        "confidence": 70,
        "district": "浦东新区",
        "location": {
            "lat": 31.17833987955854,
            "lng": 121.53233048469319
        },
        "precise": 1
    },
    {
        "address": "浦东新区胜利路30弄",
        "comprehension": 100,
        "confidence": 70,
        "district": "浦东新区",
        "location": {
            "lat": 31.248213080837292,
            "lng": 121.69295460649079
        },
        "precise": 1
    },
    {
        "address": "浦东新区上浦路202弄",
        "comprehension": 100,
        "confidence": 80,
        "district": "浦东新区",
        "location": {
            "lat": 31.150139999629182,
            "lng": 121.49871723996809
        },
        "precise": 1
    },
    {
        "address": "浦东新区新丰村",
        "comprehension": 100,
        "confidence": 50,
        "district": "浦东新区",
        "location": {
            "lat": 31.167614116870052,
            "lng": 121.6556892108843
        },
        "precise": 0
    },
    {
        "address": "浦东新区中界村蔡家宅",
        "comprehension": 100,
        "confidence": 50,
        "district": "浦东新区",
        "location": {
            "lat": 31.19544617406339,
            "lng": 121.57417373500905
        },
        "precise": 0
    },
    {
        "address": "浦东新区鹏岳路70弄",
        "comprehension": 100,
        "confidence": 80,
        "district": "浦东新区",
        "location": {
            "lat": 31.180936844062057,
            "lng": 121.55880363790278
        },
        "precise": 1
    },
    {
        "address": "浦东新区下南路115弄",
        "comprehension": 100,
        "confidence": 80,
        "district": "浦东新区",
        "location": {
            "lat": 31.172402344328333,
            "lng": 121.55020362027247
        },
        "precise": 1
    },
    {
        "address": "浦东新区中界村苏家队苏家宅",
        "comprehension": 100,
        "confidence": 70,
        "district": "浦东新区",
        "location": {
            "lat": 31.19161049851133,
            "lng": 121.57702962788638
        },
        "precise": 1
    },
    {
        "address": "浦东新区五星村陈家队陈家宅",
        "comprehension": 100,
        "confidence": 70,
        "district": "浦东新区",
        "location": {
            "lat": 31.194413133383005,
            "lng": 121.57857947438275
        },
        "precise": 1
    },
    {
        "address": "浦东新区御桥村姚家宅",
        "comprehension": 100,
        "confidence": 50,
        "district": "浦东新区",
        "location": {
            "lat": 31.162329302205315,
            "lng": 121.56411783363872
        },
        "precise": 0
    },
    {
        "address": "浦东新区下南路225弄",
        "comprehension": 100,
        "confidence": 80,
        "district": "浦东新区",
        "location": {
            "lat": 31.17539958371751,
            "lng": 121.55278588929146
        },
        "precise": 1
    },
    {
        "address": "浦东新区钱堂村长浜宅",
        "comprehension": 35,
        "confidence": 50,
        "district": "浦东新区",
        "location": {
            "lat": 31.163187258946337,
            "lng": 121.61468776266183
        },
        "precise": 0
    },
    {
        "address": "浦东新区浙桥路277号",
        "comprehension": 100,
        "confidence": 80,
        "district": "浦东新区",
        "location": {
            "lat": 31.258345881498737,
            "lng": 121.60792001878019
        },
        "precise": 1
    },
    {
        "address": "浦东新区下南路东钟家宅",
        "comprehension": 100,
        "confidence": 70,
        "district": "浦东新区",
        "location": {
            "lat": 31.173251634963325,
            "lng": 121.54865494157326
        },
        "precise": 1
    },
    {
        "address": "浦东新区莲园路8弄",
        "comprehension": 100,
        "confidence": 80,
        "district": "浦东新区",
        "location": {
            "lat": 31.190528220831894,
            "lng": 121.54860508561747
        },
        "precise": 1
    },
    {
        "address": "浦东新区御桥村印家队东印家圈",
        "comprehension": 100,
        "confidence": 50,
        "district": "浦东新区",
        "location": {
            "lat": 31.17407504173234,
            "lng": 121.56463768303735
        },
        "precise": 0
    },
    {
        "address": "浦东新区峨山路280弄",
        "comprehension": 100,
        "confidence": 80,
        "district": "浦东新区",
        "location": {
            "lat": 31.219873875831105,
            "lng": 121.53207761169213
        },
        "precise": 1
    },
    {
        "address": "浦东新区蓝村路501弄",
        "comprehension": 100,
        "confidence": 50,
        "district": "浦东新区",
        "location": {
            "lat": 31.21792644744585,
            "lng": 121.53123140790173
        },
        "precise": 0
    },
    {
        "address": "浦东新区下南路501弄",
        "comprehension": 100,
        "confidence": 50,
        "district": "浦东新区",
        "location": {
            "lat": 31.178403987748,
            "lng": 121.54658344906726
        },
        "precise": 0
    },
    {
        "address": "浦东新区博华路498弄",
        "comprehension": 100,
        "confidence": 80,
        "district": "浦东新区",
        "location": {
            "lat": 31.18479326887685,
            "lng": 121.55580401614387
        },
        "precise": 1
    },
    {
        "address": "浦东新区紫叶路76弄",
        "comprehension": 100,
        "confidence": 80,
        "district": "浦东新区",
        "location": {
            "lat": 31.189726991023054,
            "lng": 121.55664420128734
        },
        "precise": 1
    },
    {
        "address": "浦东新区堆栈路27号",
        "comprehension": 99,
        "confidence": 80,
        "district": "浦东新区",
        "location": {
            "lat": 31.192362973005647,
            "lng": 121.55834151361623
        },
        "precise": 0
    },
    {
        "address": "浦东新区赵家厍",
        "comprehension": 100,
        "confidence": 50,
        "district": "浦东新区",
        "location": {
            "lat": 31.176791383130574,
            "lng": 121.54343515774643
        },
        "precise": 0
    },
    {
        "address": "浦东新区姜薛家宅",
        "comprehension": 100,
        "confidence": 50,
        "district": "浦东新区",
        "location": {
            "lat": 31.26777484439184,
            "lng": 121.66888954086177
        },
        "precise": 0
    },
    {
        "address": "浦东新区博华路1018弄",
        "comprehension": 100,
        "confidence": 80,
        "district": "浦东新区",
        "location": {
            "lat": 31.176850857976813,
            "lng": 121.55750199321884
        },
        "precise": 1
    },
    {
        "address": "浦东新区孙环路366弄",
        "comprehension": 100,
        "confidence": 70,
        "district": "浦东新区",
        "location": {
            "lat": 31.18623227225343,
            "lng": 121.64524955340009
        },
        "precise": 1
    },
    {
        "address": "浦东新区东靖路2250弄",
        "comprehension": 100,
        "confidence": 50,
        "district": "浦东新区",
        "location": {
            "lat": 31.298372867667926,
            "lng": 121.62006879232769
        },
        "precise": 0
    },
    {
        "address": "浦东新区御秀路68弄",
        "comprehension": 99,
        "confidence": 80,
        "district": "浦东新区",
        "location": {
            "lat": 31.15859365240359,
            "lng": 121.58689812989441
        },
        "precise": 0
    },
    {
        "address": "浦东新区瑞和路555弄",
        "comprehension": 100,
        "confidence": 50,
        "district": "浦东新区",
        "location": {
            "lat": 31.094585694557914,
            "lng": 121.60129025462491
        },
        "precise": 0
    },
    {
        "address": "浦东新区航头路988弄",
        "comprehension": 100,
        "confidence": 50,
        "district": "浦东新区",
        "location": {
            "lat": 31.040624900894645,
            "lng": 121.60690466406227
        },
        "precise": 0
    },
    {
        "address": "浦东新区一六村李家队王家宅",
        "comprehension": 100,
        "confidence": 70,
        "district": "浦东新区",
        "location": {
            "lat": 31.22265914373994,
            "lng": 121.53235348131425
        },
        "precise": 1
    },
    {
        "address": "浦东新区御山路360弄",
        "comprehension": 100,
        "confidence": 50,
        "district": "浦东新区",
        "location": {
            "lat": 31.162035666910167,
            "lng": 121.57468244541937
        },
        "precise": 0
    },
    {
        "address": "浦东新区环林西路618弄",
        "comprehension": 100,
        "confidence": 80,
        "district": "浦东新区",
        "location": {
            "lat": 31.14571896209596,
            "lng": 121.52907170179465
        },
        "precise": 1
    },
    {
        "address": "浦东新区新浦路380弄",
        "comprehension": 100,
        "confidence": 70,
        "district": "浦东新区",
        "location": {
            "lat": 31.159025485187325,
            "lng": 121.50329428620252
        },
        "precise": 1
    },
    {
        "address": "浦东新区下南路551弄",
        "comprehension": 100,
        "confidence": 70,
        "district": "浦东新区",
        "location": {
            "lat": 31.179016875274282,
            "lng": 121.54679904238965
        },
        "precise": 1
    },
    {
        "address": "浦东新区丰海路500弄",
        "comprehension": 100,
        "confidence": 80,
        "district": "浦东新区",
        "location": {
            "lat": 31.061150813348565,
            "lng": 121.78915998254013
        },
        "precise": 1
    },
    {
        "address": "浦东新区行德路141弄",
        "comprehension": 100,
        "confidence": 80,
        "district": "浦东新区",
        "location": {
            "lat": 31.3000275778643,
            "lng": 121.61784243195176
        },
        "precise": 1
    },
    {
        "address": "浦东新区崂三村",
        "comprehension": 57,
        "confidence": 20,
        "district": "浦东新区",
        "location": {
            "lat": 31.227348292436346,
            "lng": 121.55045460683195
        },
        "precise": 0
    },
    {
        "address": "浦东新区杨莲路160弄",
        "comprehension": 100,
        "confidence": 70,
        "district": "浦东新区",
        "location": {
            "lat": 31.15991251964416,
            "lng": 121.57469457254375
        },
        "precise": 1
    },
    {
        "address": "浦东新区下南路276弄",
        "comprehension": 100,
        "confidence": 50,
        "district": "浦东新区",
        "location": {
            "lat": 31.175387534084695,
            "lng": 121.54798453617117
        },
        "precise": 0
    },
    {
        "address": "浦东新区鹤沙路688弄",
        "comprehension": 100,
        "confidence": 50,
        "district": "浦东新区",
        "location": {
            "lat": 31.08766578024054,
            "lng": 121.59652680999716
        },
        "precise": 0
    },
    {
        "address": "浦东新区凌兆路127弄",
        "comprehension": 100,
        "confidence": 80,
        "district": "浦东新区",
        "location": {
            "lat": 31.1477960721254,
            "lng": 121.5000277778766
        },
        "precise": 1
    },
    {
        "address": "浦东新区拱海路78弄",
        "comprehension": 100,
        "confidence": 80,
        "district": "浦东新区",
        "location": {
            "lat": 31.075214482134594,
            "lng": 121.7468341625043
        },
        "precise": 1
    },
    {
        "address": "浦东新区莲安东路367弄",
        "comprehension": 100,
        "confidence": 80,
        "district": "浦东新区",
        "location": {
            "lat": 31.188080963736194,
            "lng": 121.56971400747423
        },
        "precise": 1
    },
    {
        "address": "浦东新区牡丹路259弄",
        "comprehension": 100,
        "confidence": 70,
        "district": "浦东新区",
        "location": {
            "lat": 31.214654701261765,
            "lng": 121.5558250364928
        },
        "precise": 1
    },
    {
        "address": "浦东新区南码头路193弄",
        "comprehension": 100,
        "confidence": 80,
        "district": "浦东新区",
        "location": {
            "lat": 31.204743182053495,
            "lng": 121.51551258859648
        },
        "precise": 1
    },
    {
        "address": "浦东新区东方路1600弄",
        "comprehension": 100,
        "confidence": 80,
        "district": "浦东新区",
        "location": {
            "lat": 31.214714306495512,
            "lng": 121.5324265135522
        },
        "precise": 1
    },
    {
        "address": "浦东新区霞光路78弄",
        "comprehension": 100,
        "confidence": 50,
        "district": "浦东新区",
        "location": {
            "lat": 30.907146378777814,
            "lng": 121.8170033211441
        },
        "precise": 0
    },
    {
        "address": "浦东新区海沈村",
        "comprehension": 100,
        "confidence": 50,
        "district": "浦东新区",
        "location": {
            "lat": 31.032342067589873,
            "lng": 121.80462233562228
        },
        "precise": 0
    },
    {
        "address": "浦东新区杨莲路姚家宅",
        "comprehension": 57,
        "confidence": 30,
        "district": "浦东新区",
        "location": {
            "lat": 31.16809722238912,
            "lng": 121.55302537754041
        },
        "precise": 0
    },
    {
        "address": "浦东新区崂山二村",
        "comprehension": 100,
        "confidence": 50,
        "district": "浦东新区",
        "location": {
            "lat": 31.24201939404948,
            "lng": 121.52801547417602
        },
        "precise": 0
    },
    {
        "address": "浦东新区",
        "comprehension": 100,
        "confidence": 20,
        "district": "浦东新区",
        "location": {
            "lat": 31.227348292436346,
            "lng": 121.55045460683195
        },
        "precise": 0
    },
    {
        "address": "浦东新区临沂路339弄",
        "comprehension": 100,
        "confidence": 30,
        "district": "浦东新区",
        "location": {
            "lat": 31.176934122698174,
            "lng": 121.54938616225839
        },
        "precise": 0
    },
    {
        "address": "浦东新区川杨新苑西区",
        "comprehension": 100,
        "confidence": 70,
        "district": "浦东新区",
        "location": {
            "lat": 31.19124103963261,
            "lng": 121.6328129627672
        },
        "precise": 1
    },
    {
        "address": "浦东新区胶南小区170弄",
        "comprehension": 100,
        "confidence": 70,
        "district": "浦东新区",
        "location": {
            "lat": 31.206359166517448,
            "lng": 121.51756719295891
        },
        "precise": 1
    },
    {
        "address": "浦东新区南新西园",
        "comprehension": 100,
        "confidence": 70,
        "district": "浦东新区",
        "location": {
            "lat": 31.334801250317916,
            "lng": 121.5881132805907
        },
        "precise": 1
    },
    {
        "address": "浦东新区华夏东路860弄",
        "comprehension": 100,
        "confidence": 70,
        "district": "浦东新区",
        "location": {
            "lat": 31.20033012373384,
            "lng": 121.67234154927552
        },
        "precise": 1
    },
    {
        "address": "浦东新区川银路150弄",
        "comprehension": 100,
        "confidence": 80,
        "district": "浦东新区",
        "location": {
            "lat": 31.198977979741798,
            "lng": 121.69430916136928
        },
        "precise": 1
    },
    {
        "address": "浦东新区花木路830弄",
        "comprehension": 100,
        "confidence": 70,
        "district": "浦东新区",
        "location": {
            "lat": 31.21682563528285,
            "lng": 121.5586974581915
        },
        "precise": 1
    },
    {
        "address": "浦东新区上浦路69弄",
        "comprehension": 100,
        "confidence": 80,
        "district": "浦东新区",
        "location": {
            "lat": 31.15167626528333,
            "lng": 121.49651181011053
        },
        "precise": 1
    },
    {
        "address": "浦东新区千汇路750弄",
        "comprehension": 100,
        "confidence": 50,
        "district": "浦东新区",
        "location": {
            "lat": 31.122895232134738,
            "lng": 121.77091009762997
        },
        "precise": 0
    },
    {
        "address": "浦东新区光泽路429弄",
        "comprehension": 100,
        "confidence": 80,
        "district": "浦东新区",
        "location": {
            "lat": 31.336184046972157,
            "lng": 121.62474869454303
        },
        "precise": 1
    },
    {
        "address": "浦东新区杜鹃路188号",
        "comprehension": 100,
        "confidence": 80,
        "district": "浦东新区",
        "location": {
            "lat": 31.208870882889038,
            "lng": 121.5562699672119
        },
        "precise": 1
    },
    {
        "address": "浦东新区高东新村",
        "comprehension": 100,
        "confidence": 70,
        "district": "浦东新区",
        "location": {
            "lat": 31.33895243164745,
            "lng": 121.62165232528069
        },
        "precise": 1
    },
    {
        "address": "浦东新区灵山路2000弄",
        "comprehension": 100,
        "confidence": 80,
        "district": "浦东新区",
        "location": {
            "lat": 31.248450721415264,
            "lng": 121.58274383906591
        },
        "precise": 1
    },
    {
        "address": "浦东新区芳甸路333弄",
        "comprehension": 100,
        "confidence": 50,
        "district": "浦东新区",
        "location": {
            "lat": 31.23075723477893,
            "lng": 121.56585210225629
        },
        "precise": 0
    },
    {
        "address": "浦东新区项文路333弄",
        "comprehension": 100,
        "confidence": 80,
        "district": "浦东新区",
        "location": {
            "lat": 31.053350751242103,
            "lng": 121.7165273730642
        },
        "precise": 1
    },
    {
        "address": "浦东新区柳杉路99弄",
        "comprehension": 100,
        "confidence": 80,
        "district": "浦东新区",
        "location": {
            "lat": 31.230508819026944,
            "lng": 121.57639722080737
        },
        "precise": 1
    },
    {
        "address": "浦东新区华夏东路1152弄",
        "comprehension": 100,
        "confidence": 70,
        "district": "浦东新区",
        "location": {
            "lat": 31.202613202750292,
            "lng": 121.68058413114343
        },
        "precise": 1
    },
    {
        "address": "浦东新区新德路939弄",
        "comprehension": 99,
        "confidence": 80,
        "district": "浦东新区",
        "location": {
            "lat": 31.2009453389289,
            "lng": 121.69204776707845
        },
        "precise": 0
    },
    {
        "address": "浦东新区新德路1058弄",
        "comprehension": 100,
        "confidence": 80,
        "district": "浦东新区",
        "location": {
            "lat": 31.201394836518777,
            "lng": 121.68909099449236
        },
        "precise": 1
    },
    {
        "address": "浦东新区中界村季家宅",
        "comprehension": 100,
        "confidence": 50,
        "district": "浦东新区",
        "location": {
            "lat": 31.19930987845819,
            "lng": 121.57876102192631
        },
        "precise": 0
    },
    {
        "address": "浦东新区新德公寓",
        "comprehension": 100,
        "confidence": 70,
        "district": "浦东新区",
        "location": {
            "lat": 31.2015667599504,
            "lng": 121.69474444784449
        },
        "precise": 1
    },
    {
        "address": "浦东新区东绣路99弄",
        "comprehension": 100,
        "confidence": 80,
        "district": "浦东新区",
        "location": {
            "lat": 31.21996482277292,
            "lng": 121.54771477502652
        },
        "precise": 1
    },
    {
        "address": "浦东新区长岛路638弄",
        "comprehension": 100,
        "confidence": 80,
        "district": "浦东新区",
        "location": {
            "lat": 31.266271348719158,
            "lng": 121.58981179664897
        },
        "precise": 1
    },
    {
        "address": "浦东新区书院镇北窑1组",
        "comprehension": 100,
        "confidence": 50,
        "district": "浦东新区",
        "location": {
            "lat": 30.927224481230898,
            "lng": 121.85659586700473
        },
        "precise": 0
    },
    {
        "address": "浦东新区靖海路547弄",
        "comprehension": 100,
        "confidence": 75,
        "district": "浦东新区",
        "location": {
            "lat": 31.062525639698123,
            "lng": 121.7738753233877
        },
        "precise": 1
    },
    {
        "address": "浦东新区冬融路245弄",
        "comprehension": 100,
        "confidence": 80,
        "district": "浦东新区",
        "location": {
            "lat": 31.338860212598284,
            "lng": 121.59571114859409
        },
        "precise": 1
    },
    {
        "address": "浦东新区迎熏路222弄",
        "comprehension": 100,
        "confidence": 70,
        "district": "浦东新区",
        "location": {
            "lat": 31.040781074529843,
            "lng": 121.74660931663514
        },
        "precise": 1
    },
    {
        "address": "浦东新区环林东路906弄",
        "comprehension": 100,
        "confidence": 80,
        "district": "浦东新区",
        "location": {
            "lat": 31.14792834793253,
            "lng": 121.53547140990882
        },
        "precise": 1
    },
    {
        "address": "浦东新区宏港苑285弄",
        "comprehension": 100,
        "confidence": 70,
        "district": "浦东新区",
        "location": {
            "lat": 31.041067740271547,
            "lng": 121.84902827189701
        },
        "precise": 1
    },
    {
        "address": "浦东新区西浜头",
        "comprehension": 100,
        "confidence": 50,
        "district": "浦东新区",
        "location": {
            "lat": 31.292504199206448,
            "lng": 121.61563583429707
        },
        "precise": 0
    },
    {
        "address": "浦东新区南项湾",
        "comprehension": 100,
        "confidence": 50,
        "district": "浦东新区",
        "location": {
            "lat": 31.367077216842677,
            "lng": 121.55982483160652
        },
        "precise": 0
    },
    {
        "address": "浦东新区北项湾",
        "comprehension": 100,
        "confidence": 50,
        "district": "浦东新区",
        "location": {
            "lat": 31.367679309466983,
            "lng": 121.5601669961753
        },
        "precise": 0
    },
    {
        "address": "浦东新区惠东路342弄",
        "comprehension": 100,
        "confidence": 80,
        "district": "浦东新区",
        "location": {
            "lat": 31.049666920402938,
            "lng": 121.77751066685619
        },
        "precise": 1
    },
    {
        "address": "浦东新区上钢一村",
        "comprehension": 100,
        "confidence": 70,
        "district": "浦东新区",
        "location": {
            "lat": 31.178239082858738,
            "lng": 121.50096839357609
        },
        "precise": 1
    },
    {
        "address": "浦东新区中心村顾家宅",
        "comprehension": 100,
        "confidence": 50,
        "district": "浦东新区",
        "location": {
            "lat": 31.201845335804407,
            "lng": 121.65787901022597
        },
        "precise": 0
    },
    {
        "address": "浦东新区上南路6932弄",
        "comprehension": 99,
        "confidence": 80,
        "district": "浦东新区",
        "location": {
            "lat": 31.1236467541526,
            "lng": 121.57465896114675
        },
        "precise": 0
    },
    {
        "address": "浦东新区耀元路228弄",
        "comprehension": 100,
        "confidence": 80,
        "district": "浦东新区",
        "location": {
            "lat": 31.176939830936618,
            "lng": 121.48032983521631
        },
        "precise": 1
    },
    {
        "address": "浦东新区宣春路201号",
        "comprehension": 100,
        "confidence": 80,
        "district": "浦东新区",
        "location": {
            "lat": 31.09000123478007,
            "lng": 121.73244312857334
        },
        "precise": 1
    },
    {
        "address": "浦东新区碧云路333弄",
        "comprehension": 100,
        "confidence": 80,
        "district": "浦东新区",
        "location": {
            "lat": 31.24398785556432,
            "lng": 121.58332800713904
        },
        "precise": 1
    },
    {
        "address": "浦东新区三灶光明村",
        "comprehension": 100,
        "confidence": 50,
        "district": "浦东新区",
        "location": {
            "lat": 31.077006827055797,
            "lng": 121.72842581650218
        },
        "precise": 0
    },
    {
        "address": "浦东新区祝西村",
        "comprehension": 100,
        "confidence": 50,
        "district": "浦东新区",
        "location": {
            "lat": 31.111643333887514,
            "lng": 121.7577816320933
        },
        "precise": 0
    },
    {
        "address": "浦东新区崂山新村",
        "comprehension": 100,
        "confidence": 70,
        "district": "浦东新区",
        "location": {
            "lat": 31.244186142787363,
            "lng": 121.52608115292138
        },
        "precise": 1
    },
    {
        "address": "浦东新区六里新村",
        "comprehension": 100,
        "confidence": 70,
        "district": "浦东新区",
        "location": {
            "lat": 31.1935978595526,
            "lng": 121.52368698907618
        },
        "precise": 1
    },
    {
        "address": "浦东新区上南三村",
        "comprehension": 100,
        "confidence": 50,
        "district": "浦东新区",
        "location": {
            "lat": 31.18017273857782,
            "lng": 121.5042283442718
        },
        "precise": 0
    },
    {
        "address": "浦东新区杨高南路4501弄",
        "comprehension": 100,
        "confidence": 50,
        "district": "浦东新区",
        "location": {
            "lat": 31.16362156468892,
            "lng": 121.53193936247415
        },
        "precise": 0
    },
    {
        "address": "浦东新区高青路2861弄",
        "comprehension": 100,
        "confidence": 50,
        "district": "浦东新区",
        "location": {
            "lat": 31.167412268560067,
            "lng": 121.53511208770483
        },
        "precise": 0
    },
    {
        "address": "浦东新区高行绿洲六期",
        "comprehension": 100,
        "confidence": 70,
        "district": "浦东新区",
        "location": {
            "lat": 31.329012836514185,
            "lng": 121.59828775828836
        },
        "precise": 1
    },
    {
        "address": "浦东新区柳埠路196弄",
        "comprehension": 100,
        "confidence": 70,
        "district": "浦东新区",
        "location": {
            "lat": 31.271021584060716,
            "lng": 121.58988132549543
        },
        "precise": 1
    },
    {
        "address": "浦东新区利津路385弄",
        "comprehension": 100,
        "confidence": 50,
        "district": "浦东新区",
        "location": {
            "lat": 31.28276487908113,
            "lng": 121.59099567348056
        },
        "precise": 0
    },
    {
        "address": "浦东新区芳华路660弄",
        "comprehension": 100,
        "confidence": 80,
        "district": "浦东新区",
        "location": {
            "lat": 31.202737833818905,
            "lng": 121.5705349688798
        },
        "precise": 1
    },
    {
        "address": "浦东新区浦建路1086弄",
        "comprehension": 100,
        "confidence": 80,
        "district": "浦东新区",
        "location": {
            "lat": 31.21291640447759,
            "lng": 121.54495742626365
        },
        "precise": 1
    },
    {
        "address": "浦东新区凌兆路555弄",
        "comprehension": 100,
        "confidence": 75,
        "district": "浦东新区",
        "location": {
            "lat": 31.150254347365593,
            "lng": 121.50815052578945
        },
        "precise": 1
    },
    {
        "address": "浦东新区康杉路359弄",
        "comprehension": 100,
        "confidence": 70,
        "district": "浦东新区",
        "location": {
            "lat": 31.158411848971074,
            "lng": 121.56785496422134
        },
        "precise": 1
    },
    {
        "address": "浦东新区柳埠路142弄",
        "comprehension": 100,
        "confidence": 80,
        "district": "浦东新区",
        "location": {
            "lat": 31.269330401417204,
            "lng": 121.5889156470722
        },
        "precise": 1
    },
    {
        "address": "浦东新区陈春路620弄",
        "comprehension": 100,
        "confidence": 80,
        "district": "浦东新区",
        "location": {
            "lat": 31.179314705497738,
            "lng": 121.5524308789539
        },
        "precise": 1
    },
    {
        "address": "浦东新区叠桥村",
        "comprehension": 100,
        "confidence": 50,
        "district": "浦东新区",
        "location": {
            "lat": 31.13384997321586,
            "lng": 121.62282874617655
        },
        "precise": 0
    },
    {
        "address": "浦东新区上南路5588号",
        "comprehension": 100,
        "confidence": 80,
        "district": "浦东新区",
        "location": {
            "lat": 31.12914416758575,
            "lng": 121.53410068553116
        },
        "precise": 1
    },
    {
        "address": "浦东新区唐港路1059弄",
        "comprehension": 100,
        "confidence": 50,
        "district": "浦东新区",
        "location": {
            "lat": 30.982972671195526,
            "lng": 121.87066926010736
        },
        "precise": 0
    },
    {
        "address": "浦东新区新舒苑南苑",
        "comprehension": 100,
        "confidence": 70,
        "district": "浦东新区",
        "location": {
            "lat": 30.981955871029562,
            "lng": 121.87044639051032
        },
        "precise": 1
    },
    {
        "address": "浦东新区周浦西大街",
        "comprehension": 100,
        "confidence": 30,
        "district": "浦东新区",
        "location": {
            "lat": 31.123645274719248,
            "lng": 121.58135236383096
        },
        "precise": 0
    },
    {
        "address": "浦东新区洋溢村",
        "comprehension": 100,
        "confidence": 50,
        "district": "浦东新区",
        "location": {
            "lat": 30.94560433082354,
            "lng": 121.88577848929351
        },
        "precise": 0
    },
    {
        "address": "浦东新区中久村",
        "comprehension": 100,
        "confidence": 50,
        "district": "浦东新区",
        "location": {
            "lat": 30.933657691295856,
            "lng": 121.87279869331874
        },
        "precise": 0
    },
    {
        "address": "浦东新区联勤村张家宅张家队",
        "comprehension": 57,
        "confidence": 50,
        "district": "浦东新区",
        "location": {
            "lat": 31.3298699592958,
            "lng": 121.64193938742638
        },
        "precise": 0
    },
    {
        "address": "浦东新区梅园三村",
        "comprehension": 100,
        "confidence": 70,
        "district": "浦东新区",
        "location": {
            "lat": 31.245205127170653,
            "lng": 121.52884991016424
        },
        "precise": 1
    },
    {
        "address": "浦东新区潍坊路154弄",
        "comprehension": 100,
        "confidence": 80,
        "district": "浦东新区",
        "location": {
            "lat": 31.231346466894244,
            "lng": 121.53230434400284
        },
        "precise": 1
    },
    {
        "address": "浦东新区下南路西钟家宅",
        "comprehension": 100,
        "confidence": 70,
        "district": "浦东新区",
        "location": {
            "lat": 31.173251634963325,
            "lng": 121.54865494157326
        },
        "precise": 1
    },
    {
        "address": "浦东新区御水路555弄",
        "comprehension": 100,
        "confidence": 50,
        "district": "浦东新区",
        "location": {
            "lat": 31.160305200831736,
            "lng": 121.58232702530928
        },
        "precise": 0
    },
    {
        "address": "浦东新区莲振路269号",
        "comprehension": 100,
        "confidence": 80,
        "district": "浦东新区",
        "location": {
            "lat": 31.173909356804987,
            "lng": 121.57436094187736
        },
        "precise": 1
    },
    {
        "address": "浦东新区鹏飞路51弄",
        "comprehension": 100,
        "confidence": 75,
        "district": "浦东新区",
        "location": {
            "lat": 31.18149263748743,
            "lng": 121.56052119803788
        },
        "precise": 1
    },
    {
        "address": "浦东新区飞桥村",
        "comprehension": 100,
        "confidence": 50,
        "district": "浦东新区",
        "location": {
            "lat": 31.047104149006337,
            "lng": 121.6188211358049
        },
        "precise": 0
    },
    {
        "address": "浦东新区鹤东村",
        "comprehension": 100,
        "confidence": 50,
        "district": "浦东新区",
        "location": {
            "lat": 31.06114895730399,
            "lng": 121.60297826050872
        },
        "precise": 0
    },
    {
        "address": "浦东新区高博路188弄",
        "comprehension": 100,
        "confidence": 50,
        "district": "浦东新区",
        "location": {
            "lat": 31.30331608359981,
            "lng": 121.58701618007136
        },
        "precise": 0
    },
    {
        "address": "浦东新区板泉路2000弄",
        "comprehension": 100,
        "confidence": 75,
        "district": "浦东新区",
        "location": {
            "lat": 31.173126810191622,
            "lng": 121.5396370322197
        },
        "precise": 1
    },
    {
        "address": "浦东新区禹洲金桥国际2期",
        "comprehension": 100,
        "confidence": 50,
        "district": "浦东新区",
        "location": {
            "lat": 31.261400640611136,
            "lng": 121.62032301278703
        },
        "precise": 0
    },
    {
        "address": "浦东新区德川路369弄",
        "comprehension": 100,
        "confidence": 75,
        "district": "浦东新区",
        "location": {
            "lat": 31.198446923905312,
            "lng": 121.67621908500935
        },
        "precise": 1
    },
    {
        "address": "浦东新区金桥路715号",
        "comprehension": 100,
        "confidence": 80,
        "district": "浦东新区",
        "location": {
            "lat": 31.266823780473572,
            "lng": 121.58433922965163
        },
        "precise": 1
    },
    {
        "address": "浦东新区汤家宅",
        "comprehension": 100,
        "confidence": 50,
        "district": "浦东新区",
        "location": {
            "lat": 31.049990839103376,
            "lng": 121.85986893296088
        },
        "precise": 0
    },
    {
        "address": "浦东新区五星村吴家队吴家宅",
        "comprehension": 100,
        "confidence": 50,
        "district": "浦东新区",
        "location": {
            "lat": 31.125604863131734,
            "lng": 121.5221809798887
        },
        "precise": 0
    },
    {
        "address": "浦东新区民星苑",
        "comprehension": 100,
        "confidence": 70,
        "district": "浦东新区",
        "location": {
            "lat": 31.16724827131637,
            "lng": 121.57608308337052
        },
        "precise": 1
    },
    {
        "address": "浦东新区芳华路916弄",
        "comprehension": 100,
        "confidence": 80,
        "district": "浦东新区",
        "location": {
            "lat": 31.202853893456744,
            "lng": 121.57459800470143
        },
        "precise": 1
    },
    {
        "address": "浦东新区高科西路3030弄",
        "comprehension": 100,
        "confidence": 80,
        "district": "浦东新区",
        "location": {
            "lat": 31.195953693502513,
            "lng": 121.56949266499656
        },
        "precise": 1
    },
    {
        "address": "浦东新区上南路3848弄",
        "comprehension": 100,
        "confidence": 70,
        "district": "浦东新区",
        "location": {
            "lat": 31.156075235710073,
            "lng": 121.51183600380526
        },
        "precise": 1
    },
    {
        "address": "浦东新区海阳路905弄",
        "comprehension": 100,
        "confidence": 80,
        "district": "浦东新区",
        "location": {
            "lat": 31.164183254530798,
            "lng": 121.50996204868088
        },
        "precise": 1
    },
    {
        "address": "浦东新区天花庵村",
        "comprehension": 100,
        "confidence": 50,
        "district": "浦东新区",
        "location": {
            "lat": 31.12853590017715,
            "lng": 121.53193954213525
        },
        "precise": 0
    },
    {
        "address": "浦东新区三旋路506弄",
        "comprehension": 100,
        "confidence": 50,
        "district": "浦东新区",
        "location": {
            "lat": 31.125032277416977,
            "lng": 121.50955529594596
        },
        "precise": 0
    },
    {
        "address": "浦东新区高青路2878弄",
        "comprehension": 100,
        "confidence": 80,
        "district": "浦东新区",
        "location": {
            "lat": 31.16680038666241,
            "lng": 121.53554336418017
        },
        "precise": 1
    },
    {
        "address": "浦东新区林展路411弄",
        "comprehension": 100,
        "confidence": 80,
        "district": "浦东新区",
        "location": {
            "lat": 31.128169902288004,
            "lng": 121.51568173952401
        },
        "precise": 1
    },
    {
        "address": "浦东新区花墙村",
        "comprehension": 100,
        "confidence": 50,
        "district": "浦东新区",
        "location": {
            "lat": 31.156328175262196,
            "lng": 121.55274169266035
        },
        "precise": 0
    },
    {
        "address": "浦东新区金杨路785弄",
        "comprehension": 100,
        "confidence": 80,
        "district": "浦东新区",
        "location": {
            "lat": 31.25969878847117,
            "lng": 121.58943756257352
        },
        "precise": 1
    },
    {
        "address": "浦东新区浦东大道2511弄",
        "comprehension": 100,
        "confidence": 70,
        "district": "浦东新区",
        "location": {
            "lat": 31.265127505972,
            "lng": 121.56640626692538
        },
        "precise": 1
    },
    {
        "address": "浦东新区金杨路273弄",
        "comprehension": 100,
        "confidence": 80,
        "district": "浦东新区",
        "location": {
            "lat": 31.253646941697532,
            "lng": 121.58166030295976
        },
        "precise": 1
    },
    {
        "address": "浦东新区杨莲路171号",
        "comprehension": 100,
        "confidence": 80,
        "district": "浦东新区",
        "location": {
            "lat": 31.176187054761556,
            "lng": 121.56117956614612
        },
        "precise": 1
    },
    {
        "address": "浦东新区川银路81弄",
        "comprehension": 100,
        "confidence": 50,
        "district": "浦东新区",
        "location": {
            "lat": 31.19864607984954,
            "lng": 121.69262097582437
        },
        "precise": 0
    },
    {
        "address": "浦东新区御桥村龙桥队张家宅",
        "comprehension": 35,
        "confidence": 30,
        "district": "浦东新区",
        "location": {
            "lat": 31.010738259277055,
            "lng": 121.66784183636582
        },
        "precise": 0
    },
    {
        "address": "浦东新区华夏西路5758号",
        "comprehension": 100,
        "confidence": 80,
        "district": "浦东新区",
        "location": {
            "lat": 31.170617148187993,
            "lng": 121.58797566018657
        },
        "precise": 1
    },
    {
        "address": "浦东新区北艾路1660弄",
        "comprehension": 100,
        "confidence": 70,
        "district": "浦东新区",
        "location": {
            "lat": 31.187040813780268,
            "lng": 121.53028818711626
        },
        "precise": 1
    },
    {
        "address": "浦东新区港驳小区420弄",
        "comprehension": 100,
        "confidence": 70,
        "district": "浦东新区",
        "location": {
            "lat": 31.219864920100306,
            "lng": 121.53289560868951
        },
        "precise": 1
    },
    {
        "address": "浦东新区绿林路320弄",
        "comprehension": 100,
        "confidence": 80,
        "district": "浦东新区",
        "location": {
            "lat": 31.176162646734344,
            "lng": 121.55483474449859
        },
        "precise": 1
    },
    {
        "address": "浦东新区上南路3500弄",
        "comprehension": 100,
        "confidence": 75,
        "district": "浦东新区",
        "location": {
            "lat": 31.160769494193794,
            "lng": 121.50891300750634
        },
        "precise": 1
    },
    {
        "address": "浦东新区陈春东路88弄",
        "comprehension": 100,
        "confidence": 50,
        "district": "浦东新区",
        "location": {
            "lat": 31.181447145347832,
            "lng": 121.56599583113788
        },
        "precise": 0
    },
    {
        "address": "浦东新区御青路328弄",
        "comprehension": 100,
        "confidence": 75,
        "district": "浦东新区",
        "location": {
            "lat": 31.162400065006672,
            "lng": 121.57857112014152
        },
        "precise": 1
    },
    {
        "address": "浦东新区三林苑",
        "comprehension": 100,
        "confidence": 70,
        "district": "浦东新区",
        "location": {
            "lat": 31.149955265930966,
            "lng": 121.5291399730134
        },
        "precise": 1
    },
    {
        "address": "浦东新区江高路39弄",
        "comprehension": 100,
        "confidence": 30,
        "district": "浦东新区",
        "location": {
            "lat": 31.155665231145377,
            "lng": 121.4856155439356
        },
        "precise": 0
    },
    {
        "address": "浦东新区东陆路1182弄",
        "comprehension": 100,
        "confidence": 80,
        "district": "浦东新区",
        "location": {
            "lat": 31.275368269875603,
            "lng": 121.60235600428196
        },
        "precise": 1
    },
    {
        "address": "浦东新区祝潘公路301弄",
        "comprehension": 100,
        "confidence": 80,
        "district": "浦东新区",
        "location": {
            "lat": 31.130629232323354,
            "lng": 121.76446843864846
        },
        "precise": 1
    },
    {
        "address": "浦东新区海滨国际花园",
        "comprehension": 100,
        "confidence": 70,
        "district": "浦东新区",
        "location": {
            "lat": 30.872876780920258,
            "lng": 121.86503418964325
        },
        "precise": 1
    },
    {
        "address": "浦东新区会龙村",
        "comprehension": 100,
        "confidence": 50,
        "district": "浦东新区",
        "location": {
            "lat": 31.100736018736946,
            "lng": 121.72001938370924
        },
        "precise": 0
    },
    {
        "address": "浦东新区六灶果园村",
        "comprehension": 100,
        "confidence": 50,
        "district": "浦东新区",
        "location": {
            "lat": 30.983664773262714,
            "lng": 121.73744013263371
        },
        "precise": 0
    },
    {
        "address": "浦东新区建港村",
        "comprehension": 100,
        "confidence": 50,
        "district": "浦东新区",
        "location": {
            "lat": 31.036517804975315,
            "lng": 121.84800016124085
        },
        "precise": 0
    },
    {
        "address": "浦东新区欣春苑",
        "comprehension": 100,
        "confidence": 70,
        "district": "浦东新区",
        "location": {
            "lat": 31.030093838361037,
            "lng": 121.71140301691864
        },
        "precise": 1
    },
    {
        "address": "浦东新区沪南路2000号",
        "comprehension": 100,
        "confidence": 80,
        "district": "浦东新区",
        "location": {
            "lat": 31.17000814528788,
            "lng": 121.56787580490915
        },
        "precise": 1
    },
    {
        "address": "浦东新区京浦路160弄",
        "comprehension": 100,
        "confidence": 80,
        "district": "浦东新区",
        "location": {
            "lat": 31.159244502051745,
            "lng": 121.57470912509302
        },
        "precise": 1
    },
    {
        "address": "浦东新区世博家园大道站路94弄",
        "comprehension": 100,
        "confidence": 80,
        "district": "浦东新区",
        "location": {
            "lat": 31.165459346349106,
            "lng": 121.5456103147083
        },
        "precise": 1
    },
    {
        "address": "浦东新区鹏飞路101弄",
        "comprehension": 100,
        "confidence": 70,
        "district": "浦东新区",
        "location": {
            "lat": 31.181966634918954,
            "lng": 121.56188078342723
        },
        "precise": 1
    },
    {
        "address": "浦东新区锦绣华都",
        "comprehension": 100,
        "confidence": 70,
        "district": "浦东新区",
        "location": {
            "lat": 31.161199562218254,
            "lng": 121.58787774488599
        },
        "precise": 1
    },
    {
        "address": "浦东新区北蔡李家宅",
        "comprehension": 100,
        "confidence": 50,
        "district": "浦东新区",
        "location": {
            "lat": 31.181499357037588,
            "lng": 121.5830320154735
        },
        "precise": 0
    },
    {
        "address": "浦东新区上钢二村",
        "comprehension": 100,
        "confidence": 50,
        "district": "浦东新区",
        "location": {
            "lat": 31.183656076042627,
            "lng": 121.49944037590362
        },
        "precise": 0
    },
    {
        "address": "浦东新区民义村",
        "comprehension": 100,
        "confidence": 50,
        "district": "浦东新区",
        "location": {
            "lat": 31.13432390227659,
            "lng": 121.70506789697062
        },
        "precise": 0
    },
    {
        "address": "浦东新区丁香路901弄",
        "comprehension": 100,
        "confidence": 75,
        "district": "浦东新区",
        "location": {
            "lat": 31.23280775887829,
            "lng": 121.5587948345088
        },
        "precise": 1
    },
    {
        "address": "浦东新区秀沿西路68弄",
        "comprehension": 100,
        "confidence": 80,
        "district": "浦东新区",
        "location": {
            "lat": 31.137587866279553,
            "lng": 121.5437560324746
        },
        "precise": 1
    },
    {
        "address": "浦东新区海阳路1001弄",
        "comprehension": 100,
        "confidence": 80,
        "district": "浦东新区",
        "location": {
            "lat": 31.164480127613512,
            "lng": 121.51133394085572
        },
        "precise": 1
    },
    {
        "address": "浦东新区红旗村江湖宅",
        "comprehension": 100,
        "confidence": 50,
        "district": "浦东新区",
        "location": {
            "lat": 31.126931789483034,
            "lng": 121.50020627118141
        },
        "precise": 0
    },
    {
        "address": "浦东新区沪南路2518弄",
        "comprehension": 100,
        "confidence": 50,
        "district": "浦东新区",
        "location": {
            "lat": 31.156805544660738,
            "lng": 121.57206837638533
        },
        "precise": 0
    },
    {
        "address": "浦东新区康士路15弄",
        "comprehension": 100,
        "confidence": 80,
        "district": "浦东新区",
        "location": {
            "lat": 31.15566839870212,
            "lng": 121.56951673958423
        },
        "precise": 1
    },
    {
        "address": "浦东新区周康二村",
        "comprehension": 100,
        "confidence": 70,
        "district": "浦东新区",
        "location": {
            "lat": 31.14536183948952,
            "lng": 121.57627100888321
        },
        "precise": 1
    },
    {
        "address": "浦东新区周康五村",
        "comprehension": 100,
        "confidence": 70,
        "district": "浦东新区",
        "location": {
            "lat": 31.13897698125003,
            "lng": 121.57974924781784
        },
        "precise": 1
    },
    {
        "address": "浦东新区长清路807弄",
        "comprehension": 100,
        "confidence": 80,
        "district": "浦东新区",
        "location": {
            "lat": 31.16205328041866,
            "lng": 121.4992229859702
        },
        "precise": 1
    },
    {
        "address": "浦东新区康桥路1118弄",
        "comprehension": 100,
        "confidence": 50,
        "district": "浦东新区",
        "location": {
            "lat": 31.154346050357148,
            "lng": 121.57737664330489
        },
        "precise": 0
    },
    {
        "address": "浦东新区御青路918弄",
        "comprehension": 100,
        "confidence": 80,
        "district": "浦东新区",
        "location": {
            "lat": 31.158767840355527,
            "lng": 121.581132278981
        },
        "precise": 1
    },
    {
        "address": "浦东新区芳华路573弄",
        "comprehension": 100,
        "confidence": 80,
        "district": "浦东新区",
        "location": {
            "lat": 31.202881074402363,
            "lng": 121.56906579021823
        },
        "precise": 1
    },
    {
        "address": "浦东新区人和新村",
        "comprehension": 100,
        "confidence": 70,
        "district": "浦东新区",
        "location": {
            "lat": 31.161427612578496,
            "lng": 121.58319586639854
        },
        "precise": 1
    },
    {
        "address": "浦东新区御青路1051弄",
        "comprehension": 100,
        "confidence": 75,
        "district": "浦东新区",
        "location": {
            "lat": 31.15801174332688,
            "lng": 121.58052268886195
        },
        "precise": 1
    },
    {
        "address": "浦东新区中林街33弄",
        "comprehension": 100,
        "confidence": 80,
        "district": "浦东新区",
        "location": {
            "lat": 31.14256685616822,
            "lng": 121.50622500792882
        },
        "precise": 1
    },
    {
        "address": "浦东新区御青路999弄",
        "comprehension": 100,
        "confidence": 80,
        "district": "浦东新区",
        "location": {
            "lat": 31.16029762997253,
            "lng": 121.5795247612709
        },
        "precise": 1
    },
    {
        "address": "浦东新区汇腾南苑",
        "comprehension": 100,
        "confidence": 70,
        "district": "浦东新区",
        "location": {
            "lat": 31.0959180837554,
            "lng": 121.59176363486105
        },
        "precise": 1
    },
    {
        "address": "浦东新区上南路7992弄",
        "comprehension": 100,
        "confidence": 50,
        "district": "浦东新区",
        "location": {
            "lat": 31.12500136433539,
            "lng": 121.58100651620961
        },
        "precise": 0
    },
    {
        "address": "浦东新区汇福家园平安里南",
        "comprehension": 100,
        "confidence": 70,
        "district": "浦东新区",
        "location": {
            "lat": 31.10575986233398,
            "lng": 121.61180608841637
        },
        "precise": 1
    },
    {
        "address": "浦东新区东建新村",
        "comprehension": 100,
        "confidence": 70,
        "district": "浦东新区",
        "location": {
            "lat": 31.222713416923376,
            "lng": 121.52686142108733
        },
        "precise": 1
    },
    {
        "address": "浦东新区南码头路1521弄",
        "comprehension": 100,
        "confidence": 80,
        "district": "浦东新区",
        "location": {
            "lat": 31.18286750920583,
            "lng": 121.52539646446166
        },
        "precise": 1
    },
    {
        "address": "浦东新区东方路3344弄",
        "comprehension": 100,
        "confidence": 75,
        "district": "浦东新区",
        "location": {
            "lat": 31.197538785966152,
            "lng": 121.52063023508683
        },
        "precise": 1
    },
    {
        "address": "浦东新区莲安西路125弄",
        "comprehension": 100,
        "confidence": 80,
        "district": "浦东新区",
        "location": {
            "lat": 31.18532718248633,
            "lng": 121.55974578072166
        },
        "precise": 1
    },
    {
        "address": "浦东新区崂山四村",
        "comprehension": 100,
        "confidence": 70,
        "district": "浦东新区",
        "location": {
            "lat": 31.24117281086977,
            "lng": 121.52454199626058
        },
        "precise": 1
    },
    {
        "address": "浦东新区团西村",
        "comprehension": 100,
        "confidence": 50,
        "district": "浦东新区",
        "location": {
            "lat": 30.974409907501002,
            "lng": 121.73963217773915
        },
        "precise": 0
    },
    {
        "address": "浦东新区闵西队闵家宅",
        "comprehension": 100,
        "confidence": 50,
        "district": "浦东新区",
        "location": {
            "lat": 31.183702339454175,
            "lng": 121.77731708201878
        },
        "precise": 0
    },
    {
        "address": "浦东新区北艾路1643弄",
        "comprehension": 100,
        "confidence": 70,
        "district": "浦东新区",
        "location": {
            "lat": 31.184833893684832,
            "lng": 121.53206000490414
        },
        "precise": 1
    },
    {
        "address": "浦东新区华春路100弄",
        "comprehension": 100,
        "confidence": 70,
        "district": "浦东新区",
        "location": {
            "lat": 31.213179845684934,
            "lng": 121.52684004141621
        },
        "precise": 1
    },
    {
        "address": "浦东新区五莲路780弄",
        "comprehension": 100,
        "confidence": 80,
        "district": "浦东新区",
        "location": {
            "lat": 31.274305479007058,
            "lng": 121.59713693909953
        },
        "precise": 1
    },
    {
        "address": "浦东新区尚博路129弄",
        "comprehension": 100,
        "confidence": 80,
        "district": "浦东新区",
        "location": {
            "lat": 31.152394710401303,
            "lng": 121.51699380455189
        },
        "precise": 1
    },
    {
        "address": "浦东新区秀龙村",
        "comprehension": 100,
        "confidence": 50,
        "district": "浦东新区",
        "location": {
            "lat": 31.132605675883436,
            "lng": 121.5691399004228
        },
        "precise": 0
    },
    {
        "address": "浦东新区微山新村",
        "comprehension": 100,
        "confidence": 70,
        "district": "浦东新区",
        "location": {
            "lat": 31.215230523292508,
            "lng": 121.52188759330915
        },
        "precise": 1
    },
    {
        "address": "浦东新区宣桥镇宣桥12组",
        "comprehension": 100,
        "confidence": 30,
        "district": "浦东新区",
        "location": {
            "lat": 31.02301715955858,
            "lng": 121.70603357539385
        },
        "precise": 0
    },
    {
        "address": "浦东新区卫行村朱家队朱家宅",
        "comprehension": 24,
        "confidence": 50,
        "district": "浦东新区",
        "location": {
            "lat": 31.166665202015878,
            "lng": 121.58720141066752
        },
        "precise": 0
    },
    {
        "address": "浦东新区北中路383弄",
        "comprehension": 100,
        "confidence": 80,
        "district": "浦东新区",
        "location": {
            "lat": 31.19047632308665,
            "lng": 121.56535623761478
        },
        "precise": 1
    },
    {
        "address": "浦东新区龙阳路1880弄",
        "comprehension": 100,
        "confidence": 80,
        "district": "浦东新区",
        "location": {
            "lat": 31.206698915055398,
            "lng": 121.55929249576131
        },
        "precise": 1
    },
    {
        "address": "浦东新区上游村卢家宅",
        "comprehension": 100,
        "confidence": 50,
        "district": "浦东新区",
        "location": {
            "lat": 31.11527776809923,
            "lng": 121.70936539053037
        },
        "precise": 0
    },
    {
        "address": "浦东新区五星村家务队顾家宅",
        "comprehension": 18,
        "confidence": 50,
        "district": "浦东新区",
        "location": {
            "lat": 31.179988450201478,
            "lng": 121.57836549801027
        },
        "precise": 0
    },
    {
        "address": "浦东新区黄路村",
        "comprehension": 100,
        "confidence": 50,
        "district": "浦东新区",
        "location": {
            "lat": 31.03629734180501,
            "lng": 121.7711685401252
        },
        "precise": 0
    },
    {
        "address": "浦东新区新园路251弄",
        "comprehension": 100,
        "confidence": 75,
        "district": "浦东新区",
        "location": {
            "lat": 31.322349527331024,
            "lng": 121.63857765871637
        },
        "precise": 1
    },
    {
        "address": "浦东新区永新村",
        "comprehension": 100,
        "confidence": 50,
        "district": "浦东新区",
        "location": {
            "lat": 31.075899412449523,
            "lng": 121.79691199976904
        },
        "precise": 0
    },
    {
        "address": "浦东新区法赛路518号",
        "comprehension": 100,
        "confidence": 80,
        "district": "浦东新区",
        "location": {
            "lat": 31.319361467861132,
            "lng": 121.6281577639534
        },
        "precise": 1
    },
    {
        "address": "浦东新区严民路40弄",
        "comprehension": 100,
        "confidence": 80,
        "district": "浦东新区",
        "location": {
            "lat": 31.198209156327895,
            "lng": 121.53536082850054
        },
        "precise": 1
    },
    {
        "address": "浦东新区海尚东苑",
        "comprehension": 100,
        "confidence": 70,
        "district": "浦东新区",
        "location": {
            "lat": 31.293546262714703,
            "lng": 121.68168320793488
        },
        "precise": 1
    },
    {
        "address": "浦东新区成山路2388弄",
        "comprehension": 100,
        "confidence": 80,
        "district": "浦东新区",
        "location": {
            "lat": 31.185659824651268,
            "lng": 121.55237302807906
        },
        "precise": 1
    },
    {
        "address": "浦东新区一六村南赵家宅",
        "comprehension": 100,
        "confidence": 50,
        "district": "浦东新区",
        "location": {
            "lat": 31.173188295681612,
            "lng": 121.60272673496593
        },
        "precise": 0
    },
    {
        "address": "浦东新区海桐路68弄",
        "comprehension": 100,
        "confidence": 80,
        "district": "浦东新区",
        "location": {
            "lat": 31.211229112368898,
            "lng": 121.55935061612782
        },
        "precise": 1
    },
    {
        "address": "浦东新区下南路500弄",
        "comprehension": 100,
        "confidence": 70,
        "district": "浦东新区",
        "location": {
            "lat": 31.177967587760506,
            "lng": 121.5437208188986
        },
        "precise": 1
    },
    {
        "address": "浦东新区南泉路111弄",
        "comprehension": 99,
        "confidence": 80,
        "district": "浦东新区",
        "location": {
            "lat": 31.224689022193278,
            "lng": 121.52790668121233
        },
        "precise": 0
    },
    {
        "address": "浦东新区张杨路628弄",
        "comprehension": 100,
        "confidence": 80,
        "district": "浦东新区",
        "location": {
            "lat": 31.233830340914704,
            "lng": 121.52760369093023
        },
        "precise": 1
    },
    {
        "address": "浦东新区成山路601弄",
        "comprehension": 100,
        "confidence": 80,
        "district": "浦东新区",
        "location": {
            "lat": 31.180125469338968,
            "lng": 121.51531208680666
        },
        "precise": 1
    },
    {
        "address": "浦东新区申波路83弄",
        "comprehension": 100,
        "confidence": 80,
        "district": "浦东新区",
        "location": {
            "lat": 31.201574449623596,
            "lng": 121.56831301020087
        },
        "precise": 1
    },
    {
        "address": "浦东新区芳华路580弄",
        "comprehension": 100,
        "confidence": 70,
        "district": "浦东新区",
        "location": {
            "lat": 31.202517837477373,
            "lng": 121.5690579749603
        },
        "precise": 1
    },
    {
        "address": "浦东新区芳华路630弄",
        "comprehension": 100,
        "confidence": 80,
        "district": "浦东新区",
        "location": {
            "lat": 31.200205103357757,
            "lng": 121.55655904192501
        },
        "precise": 1
    },
    {
        "address": "浦东新区罗山路5205号",
        "comprehension": 100,
        "confidence": 80,
        "district": "浦东新区",
        "location": {
            "lat": 31.168404743170335,
            "lng": 121.59740661041363
        },
        "precise": 1
    },
    {
        "address": "浦东新区莲溪路780弄",
        "comprehension": 100,
        "confidence": 75,
        "district": "浦东新区",
        "location": {
            "lat": 31.18347820498392,
            "lng": 121.5687171578498
        },
        "precise": 1
    },
    {
        "address": "浦东新区蓝村路471弄",
        "comprehension": 100,
        "confidence": 75,
        "district": "浦东新区",
        "location": {
            "lat": 31.217902204702717,
            "lng": 121.5336015869898
        },
        "precise": 1
    },
    {
        "address": "浦东新区三林镇临江村",
        "comprehension": 100,
        "confidence": 50,
        "district": "浦东新区",
        "location": {
            "lat": 31.129345634527656,
            "lng": 121.48517950644107
        },
        "precise": 0
    },
    {
        "address": "浦东新区环林西路775弄",
        "comprehension": 100,
        "confidence": 70,
        "district": "浦东新区",
        "location": {
            "lat": 31.1481103041267,
            "lng": 121.51404116417113
        },
        "precise": 1
    },
    {
        "address": "浦东新区三林路1300弄",
        "comprehension": 100,
        "confidence": 80,
        "district": "浦东新区",
        "location": {
            "lat": 31.14908675771163,
            "lng": 121.52563020355537
        },
        "precise": 1
    },
    {
        "address": "浦东新区上南路4265弄",
        "comprehension": 100,
        "confidence": 80,
        "district": "浦东新区",
        "location": {
            "lat": 31.151809926314225,
            "lng": 121.51980478215371
        },
        "precise": 1
    },
    {
        "address": "浦东新区环林东路271弄",
        "comprehension": 100,
        "confidence": 80,
        "district": "浦东新区",
        "location": {
            "lat": 31.155298952705344,
            "lng": 121.53316411220645
        },
        "precise": 1
    },
    {
        "address": "浦东新区凌兆路726弄",
        "comprehension": 100,
        "confidence": 80,
        "district": "浦东新区",
        "location": {
            "lat": 31.150804064437544,
            "lng": 121.51165194100625
        },
        "precise": 1
    },
    {
        "address": "浦东新区灵岩南路801弄",
        "comprehension": 100,
        "confidence": 50,
        "district": "浦东新区",
        "location": {
            "lat": 31.153328935788675,
            "lng": 121.50452478509008
        },
        "precise": 0
    },
    {
        "address": "浦东新区上浦路201弄",
        "comprehension": 100,
        "confidence": 80,
        "district": "浦东新区",
        "location": {
            "lat": 31.15145537649195,
            "lng": 121.4998086811627
        },
        "precise": 1
    },
    {
        "address": "浦东新区康桥路1558弄",
        "comprehension": 100,
        "confidence": 80,
        "district": "浦东新区",
        "location": {
            "lat": 31.155405954675448,
            "lng": 121.58763637019544
        },
        "precise": 1
    },
    {
        "address": "浦东新区齐友佳苑",
        "comprehension": 100,
        "confidence": 70,
        "district": "浦东新区",
        "location": {
            "lat": 31.21165547441348,
            "lng": 121.67834510465981
        },
        "precise": 1
    },
    {
        "address": "浦东新区新浦路252弄",
        "comprehension": 99,
        "confidence": 80,
        "district": "浦东新区",
        "location": {
            "lat": 31.174026195606157,
            "lng": 121.54364392394693
        },
        "precise": 0
    },
    {
        "address": "浦东新区宝华路1018号",
        "comprehension": 100,
        "confidence": 20,
        "district": "浦东新区",
        "location": {
            "lat": 31.227348292436346,
            "lng": 121.55045460683195
        },
        "precise": 0
    },
    {
        "address": "浦东新区建中路285弄",
        "comprehension": 100,
        "confidence": 50,
        "district": "浦东新区",
        "location": {
            "lat": 31.04149294146747,
            "lng": 121.84718297271841
        },
        "precise": 0
    },
    {
        "address": "浦东新区浦电路489号工地生活区",
        "comprehension": 24,
        "confidence": 80,
        "district": "浦东新区",
        "location": {
            "lat": 31.228541386204874,
            "lng": 121.54141801272378
        },
        "precise": 1
    },
    {
        "address": "浦东新区新场镇坦直村",
        "comprehension": 100,
        "confidence": 25,
        "district": "浦东新区",
        "location": {
            "lat": 31.07908878073053,
            "lng": 121.65553784640588
        },
        "precise": 0
    },
    {
        "address": "浦东新区航头路1675弄",
        "comprehension": 99,
        "confidence": 80,
        "district": "浦东新区",
        "location": {
            "lat": 31.036120119984524,
            "lng": 121.58722000559158
        },
        "precise": 0
    },
    {
        "address": "浦东新区航绣路50弄",
        "comprehension": 57,
        "confidence": 30,
        "district": "浦东新区",
        "location": {
            "lat": 31.076577146786715,
            "lng": 121.60439363067024
        },
        "precise": 0
    },
    {
        "address": "浦东新区联勤村麦家宅",
        "comprehension": 100,
        "confidence": 50,
        "district": "浦东新区",
        "location": {
            "lat": 31.16926349405447,
            "lng": 121.55391344236757
        },
        "precise": 0
    },
    {
        "address": "浦东新区中界村陈家队陈家宅",
        "comprehension": 100,
        "confidence": 70,
        "district": "浦东新区",
        "location": {
            "lat": 31.194413133383005,
            "lng": 121.57857947438275
        },
        "precise": 1
    },
    {
        "address": "浦东新区下南路465弄",
        "comprehension": 100,
        "confidence": 50,
        "district": "浦东新区",
        "location": {
            "lat": 31.178101056857255,
            "lng": 121.54678547797646
        },
        "precise": 0
    },
    {
        "address": "浦东新区城南路747弄",
        "comprehension": 100,
        "confidence": 70,
        "district": "浦东新区",
        "location": {
            "lat": 31.19466326665228,
            "lng": 121.69923609759985
        },
        "precise": 1
    },
    {
        "address": "浦东新区高宝路379弄",
        "comprehension": 100,
        "confidence": 80,
        "district": "浦东新区",
        "location": {
            "lat": 31.298197837401478,
            "lng": 121.62998222244416
        },
        "precise": 1
    },
    {
        "address": "浦东新区御水路150弄",
        "comprehension": 100,
        "confidence": 80,
        "district": "浦东新区",
        "location": {
            "lat": 31.167441854466574,
            "lng": 121.57886495587383
        },
        "precise": 1
    },
    {
        "address": "浦东新区北艾路862弄",
        "comprehension": 100,
        "confidence": 80,
        "district": "浦东新区",
        "location": {
            "lat": 31.19022772322093,
            "lng": 121.54340838824224
        },
        "precise": 1
    },
    {
        "address": "浦东新区五星村三联队黄家宅",
        "comprehension": 18,
        "confidence": 50,
        "district": "浦东新区",
        "location": {
            "lat": 31.179988450201478,
            "lng": 121.57836549801027
        },
        "precise": 0
    },
    {
        "address": "浦东新区三林路安居苑1662弄",
        "comprehension": 100,
        "confidence": 70,
        "district": "浦东新区",
        "location": {
            "lat": 31.147505481920273,
            "lng": 121.51714274360545
        },
        "precise": 1
    },
    {
        "address": "浦东新区三林路430弄",
        "comprehension": 100,
        "confidence": 75,
        "district": "浦东新区",
        "location": {
            "lat": 31.14472972450974,
            "lng": 121.50748703733979
        },
        "precise": 1
    },
    {
        "address": "浦东新区凌兆路373号",
        "comprehension": 100,
        "confidence": 80,
        "district": "浦东新区",
        "location": {
            "lat": 31.148512847150098,
            "lng": 121.50424289682105
        },
        "precise": 1
    },
    {
        "address": "浦东新区上浦路410弄",
        "comprehension": 100,
        "confidence": 80,
        "district": "浦东新区",
        "location": {
            "lat": 31.151419913709955,
            "lng": 121.50412890185184
        },
        "precise": 1
    },
    {
        "address": "浦东新区御桥路2066弄",
        "comprehension": 100,
        "confidence": 80,
        "district": "浦东新区",
        "location": {
            "lat": 31.164948494555752,
            "lng": 121.58173980299742
        },
        "precise": 1
    },
    {
        "address": "浦东新区锦绣路2466弄",
        "comprehension": 100,
        "confidence": 80,
        "district": "浦东新区",
        "location": {
            "lat": 31.201695529974554,
            "lng": 121.53804999587523
        },
        "precise": 1
    },
    {
        "address": "浦东新区严杨路30弄",
        "comprehension": 100,
        "confidence": 70,
        "district": "浦东新区",
        "location": {
            "lat": 31.198276108155607,
            "lng": 121.53251293054227
        },
        "precise": 1
    },
    {
        "address": "浦东新区牡丹路258弄",
        "comprehension": 100,
        "confidence": 75,
        "district": "浦东新区",
        "location": {
            "lat": 31.213972712771053,
            "lng": 121.5556305533499
        },
        "precise": 1
    },
    {
        "address": "浦东新区严桥路141弄",
        "comprehension": 100,
        "confidence": 80,
        "district": "浦东新区",
        "location": {
            "lat": 31.196409470181045,
            "lng": 121.53576120326635
        },
        "precise": 1
    },
    {
        "address": "浦东新区康桥路1633弄",
        "comprehension": 100,
        "confidence": 70,
        "district": "浦东新区",
        "location": {
            "lat": 31.156750151702454,
            "lng": 121.59000340521423
        },
        "precise": 1
    },
    {
        "address": "浦东新区康弘路508弄",
        "comprehension": 100,
        "confidence": 80,
        "district": "浦东新区",
        "location": {
            "lat": 31.12693472616589,
            "lng": 121.60698461325266
        },
        "precise": 1
    },
    {
        "address": "浦东新区浦建路1578弄",
        "comprehension": 100,
        "confidence": 75,
        "district": "浦东新区",
        "location": {
            "lat": 31.20679651531659,
            "lng": 121.55249429932292
        },
        "precise": 1
    },
    {
        "address": "浦东新区锦和路289弄",
        "comprehension": 100,
        "confidence": 80,
        "district": "浦东新区",
        "location": {
            "lat": 31.21064083456777,
            "lng": 121.54364599004963
        },
        "precise": 1
    },
    {
        "address": "浦东新区孙桥沔北5队",
        "comprehension": 100,
        "confidence": 50,
        "district": "浦东新区",
        "location": {
            "lat": 31.173264843515458,
            "lng": 121.63755026670462
        },
        "precise": 0
    },
    {
        "address": "浦东新区沪南路2591号",
        "comprehension": 100,
        "confidence": 80,
        "district": "浦东新区",
        "location": {
            "lat": 31.154660878496433,
            "lng": 121.57405399088458
        },
        "precise": 1
    },
    {
        "address": "浦东新区孙桥劳动村吴家宅",
        "comprehension": 100,
        "confidence": 50,
        "district": "浦东新区",
        "location": {
            "lat": 31.185271265739956,
            "lng": 121.6390159419747
        },
        "precise": 0
    },
    {
        "address": "浦东新区川北公路2820号",
        "comprehension": 100,
        "confidence": 80,
        "district": "浦东新区",
        "location": {
            "lat": 31.209876971291003,
            "lng": 121.6183400932043
        },
        "precise": 1
    },
    {
        "address": "浦东新区张江镇中心村小桥宅",
        "comprehension": 57,
        "confidence": 50,
        "district": "浦东新区",
        "location": {
            "lat": 31.192715005059494,
            "lng": 121.6647867999366
        },
        "precise": 0
    },
    {
        "address": "浦东新区康沈路3001弄",
        "comprehension": 100,
        "confidence": 50,
        "district": "浦东新区",
        "location": {
            "lat": 31.096270987857434,
            "lng": 121.58919906246061
        },
        "precise": 0
    },
    {
        "address": "浦东新区繁荣路266弄",
        "comprehension": 100,
        "confidence": 80,
        "district": "浦东新区",
        "location": {
            "lat": 31.11027012394051,
            "lng": 121.57846431161637
        },
        "precise": 1
    },
    {
        "address": "浦东新区上南路7762号",
        "comprehension": 100,
        "confidence": 80,
        "district": "浦东新区",
        "location": {
            "lat": 31.12407829503289,
            "lng": 121.5765352005337
        },
        "precise": 1
    },
    {
        "address": "浦东新区浦三路821弄",
        "comprehension": 100,
        "confidence": 50,
        "district": "浦东新区",
        "location": {
            "lat": 31.187363873173684,
            "lng": 121.5263536988131
        },
        "precise": 0
    },
    {
        "address": "浦东新区严中路47弄",
        "comprehension": 100,
        "confidence": 80,
        "district": "浦东新区",
        "location": {
            "lat": 31.200757616482992,
            "lng": 121.53702206488015
        },
        "precise": 1
    },
    {
        "address": "浦东新区长达佳苑",
        "comprehension": 100,
        "confidence": 70,
        "district": "浦东新区",
        "location": {
            "lat": 31.0318882795788,
            "lng": 121.58304306463128
        },
        "precise": 1
    },
    {
        "address": "浦东新区北张家浜路58号",
        "comprehension": 100,
        "confidence": 80,
        "district": "浦东新区",
        "location": {
            "lat": 31.222173076955738,
            "lng": 121.52762345365146
        },
        "precise": 1
    },
    {
        "address": "浦东新区古恩路118号",
        "comprehension": 100,
        "confidence": 80,
        "district": "浦东新区",
        "location": {
            "lat": 31.079615486216092,
            "lng": 121.64793539704438
        },
        "precise": 1
    },
    {
        "address": "浦东新区鹤驰路88弄",
        "comprehension": 100,
        "confidence": 70,
        "district": "浦东新区",
        "location": {
            "lat": 31.086394893804805,
            "lng": 121.600970727355
        },
        "precise": 1
    },
    {
        "address": "浦东新区齐恒路95弄",
        "comprehension": 100,
        "confidence": 75,
        "district": "浦东新区",
        "location": {
            "lat": 31.19534176619327,
            "lng": 121.5278429995181
        },
        "precise": 1
    },
    {
        "address": "浦东新区金杨路220弄",
        "comprehension": 100,
        "confidence": 75,
        "district": "浦东新区",
        "location": {
            "lat": 31.253276801497623,
            "lng": 121.58149717067916
        },
        "precise": 1
    },
    {
        "address": "浦东新区济阳一村",
        "comprehension": 100,
        "confidence": 50,
        "district": "浦东新区",
        "location": {
            "lat": 31.171985227421057,
            "lng": 121.48911884559396
        },
        "precise": 0
    },
    {
        "address": "浦东新区上南十二村",
        "comprehension": 100,
        "confidence": 50,
        "district": "浦东新区",
        "location": {
            "lat": 31.17519914250867,
            "lng": 121.5111510458539
        },
        "precise": 0
    },
    {
        "address": "浦东新区浦东大道140弄",
        "comprehension": 100,
        "confidence": 75,
        "district": "浦东新区",
        "location": {
            "lat": 31.244048831438676,
            "lng": 121.52166903557857
        },
        "precise": 1
    },
    {
        "address": "浦东新区长岛路1280弄",
        "comprehension": 100,
        "confidence": 75,
        "district": "浦东新区",
        "location": {
            "lat": 31.26688312097201,
            "lng": 121.59964231316687
        },
        "precise": 1
    },
    {
        "address": "浦东新区高桥镇龚家宅",
        "comprehension": 57,
        "confidence": 25,
        "district": "浦东新区",
        "location": {
            "lat": 31.34503398389822,
            "lng": 121.5866195781887
        },
        "precise": 0
    },
    {
        "address": "浦东新区御衡路68弄",
        "comprehension": 100,
        "confidence": 80,
        "district": "浦东新区",
        "location": {
            "lat": 31.159592610343985,
            "lng": 121.58833740781544
        },
        "precise": 1
    },
    {
        "address": "浦东新区苗圃路463弄",
        "comprehension": 100,
        "confidence": 80,
        "district": "浦东新区",
        "location": {
            "lat": 31.24284675034898,
            "lng": 121.55669244029323
        },
        "precise": 1
    },
    {
        "address": "浦东新区康桥路1603号",
        "comprehension": 100,
        "confidence": 80,
        "district": "浦东新区",
        "location": {
            "lat": 31.156993973181926,
            "lng": 121.58860618082403
        },
        "precise": 1
    },
    {
        "address": "浦东新区御水路199弄",
        "comprehension": 100,
        "confidence": 80,
        "district": "浦东新区",
        "location": {
            "lat": 31.166554813951443,
            "lng": 121.58063821095053
        },
        "precise": 1
    },
    {
        "address": "浦东新区博华路108号",
        "comprehension": 100,
        "confidence": 80,
        "district": "浦东新区",
        "location": {
            "lat": 31.190169029152056,
            "lng": 121.55371599481649
        },
        "precise": 1
    },
    {
        "address": "浦东新区博山路78弄",
        "comprehension": 100,
        "confidence": 80,
        "district": "浦东新区",
        "location": {
            "lat": 31.25146659723759,
            "lng": 121.56207131402589
        },
        "precise": 1
    },
    {
        "address": "浦东新区沔北路唐家宅",
        "comprehension": 100,
        "confidence": 50,
        "district": "浦东新区",
        "location": {
            "lat": 31.167854047744267,
            "lng": 121.63362943264522
        },
        "precise": 0
    },
    {
        "address": "浦东新区古桐路63弄",
        "comprehension": 99,
        "confidence": 80,
        "district": "浦东新区",
        "location": {
            "lat": 31.209215872823613,
            "lng": 121.61948740900165
        },
        "precise": 0
    },
    {
        "address": "浦东新区康桥东路1159弄",
        "comprehension": 100,
        "confidence": 80,
        "district": "浦东新区",
        "location": {
            "lat": 31.165302838897336,
            "lng": 121.63768141930908
        },
        "precise": 1
    },
    {
        "address": "浦东新区卫行村顾家宅",
        "comprehension": 100,
        "confidence": 50,
        "district": "浦东新区",
        "location": {
            "lat": 31.166665202015878,
            "lng": 121.58720141066752
        },
        "precise": 0
    },
    {
        "address": "浦东新区龙东大道大众村",
        "comprehension": 100,
        "confidence": 50,
        "district": "浦东新区",
        "location": {
            "lat": 31.22191676372139,
            "lng": 121.64853277020852
        },
        "precise": 0
    },
    {
        "address": "浦东新区浦建路725弄",
        "comprehension": 100,
        "confidence": 80,
        "district": "浦东新区",
        "location": {
            "lat": 31.215407793615004,
            "lng": 121.53777295845595
        },
        "precise": 1
    },
    {
        "address": "浦东新区浦东南路1700弄",
        "comprehension": 100,
        "confidence": 80,
        "district": "浦东新区",
        "location": {
            "lat": 31.22378497774176,
            "lng": 121.5250607676926
        },
        "precise": 1
    },
    {
        "address": "浦东新区巨野路大陆家宅",
        "comprehension": 100,
        "confidence": 50,
        "district": "浦东新区",
        "location": {
            "lat": 31.244897858469482,
            "lng": 121.5531859945656
        },
        "precise": 0
    },
    {
        "address": "浦东新区梓康路51弄",
        "comprehension": 100,
        "confidence": 80,
        "district": "浦东新区",
        "location": {
            "lat": 31.128721294256383,
            "lng": 121.5793535442407
        },
        "precise": 1
    },
    {
        "address": "浦东新区鹤洁路138弄",
        "comprehension": 100,
        "confidence": 80,
        "district": "浦东新区",
        "location": {
            "lat": 31.075308430310802,
            "lng": 121.60424523059997
        },
        "precise": 1
    },
    {
        "address": "浦东新区秀沿西路218弄",
        "comprehension": 100,
        "confidence": 80,
        "district": "浦东新区",
        "location": {
            "lat": 31.13576460720778,
            "lng": 121.54052186314703
        },
        "precise": 1
    },
    {
        "address": "浦东新区新龙路69弄",
        "comprehension": 100,
        "confidence": 80,
        "district": "浦东新区",
        "location": {
            "lat": 31.32351248858295,
            "lng": 121.63439002792052
        },
        "precise": 1
    },
    {
        "address": "浦东新区浦东南路1860号",
        "comprehension": 100,
        "confidence": 80,
        "district": "浦东新区",
        "location": {
            "lat": 31.22222588357104,
            "lng": 121.52450597420963
        },
        "precise": 1
    },
    {
        "address": "浦东新区周埠村洪波村",
        "comprehension": 100,
        "confidence": 50,
        "district": "浦东新区",
        "location": {
            "lat": 31.007471173056008,
            "lng": 121.76883052037437
        },
        "precise": 0
    },
    {
        "address": "浦东新区东海3村",
        "comprehension": 100,
        "confidence": 50,
        "district": "浦东新区",
        "location": {
            "lat": 30.958858859678774,
            "lng": 121.9109429910362
        },
        "precise": 0
    },
    {
        "address": "浦东新区书礼路813号",
        "comprehension": 100,
        "confidence": 30,
        "district": "浦东新区",
        "location": {
            "lat": 30.94470335217928,
            "lng": 121.88210325196056
        },
        "precise": 0
    },
    {
        "address": "浦东新区成日村",
        "comprehension": 100,
        "confidence": 50,
        "district": "浦东新区",
        "location": {
            "lat": 31.068763149781116,
            "lng": 121.83164749756776
        },
        "precise": 0
    },
    {
        "address": "浦东新区南祝路108弄",
        "comprehension": 100,
        "confidence": 75,
        "district": "浦东新区",
        "location": {
            "lat": 31.131678353774078,
            "lng": 121.760829313197
        },
        "precise": 1
    },
    {
        "address": "浦东新区齐河路1066号",
        "comprehension": 100,
        "confidence": 80,
        "district": "浦东新区",
        "location": {
            "lat": 31.18951288874278,
            "lng": 121.5249630320531
        },
        "precise": 1
    },
    {
        "address": "浦东新区上浦路36弄",
        "comprehension": 100,
        "confidence": 80,
        "district": "浦东新区",
        "location": {
            "lat": 31.15038414733,
            "lng": 121.49631840493424
        },
        "precise": 1
    },
    {
        "address": "浦东新区孙桥劳动9队",
        "comprehension": 100,
        "confidence": 30,
        "district": "浦东新区",
        "location": {
            "lat": 31.192204610664557,
            "lng": 121.6374986141378
        },
        "precise": 0
    },
    {
        "address": "浦东新区民乐苑",
        "comprehension": 100,
        "confidence": 50,
        "district": "浦东新区",
        "location": {
            "lat": 31.16147944915149,
            "lng": 121.57530227622125
        },
        "precise": 0
    },
    {
        "address": "浦东新区秀沿路1028弄",
        "comprehension": 100,
        "confidence": 80,
        "district": "浦东新区",
        "location": {
            "lat": 31.138215393031583,
            "lng": 121.58514977071329
        },
        "precise": 1
    },
    {
        "address": "浦东新区京浦路82弄",
        "comprehension": 100,
        "confidence": 75,
        "district": "浦东新区",
        "location": {
            "lat": 31.15969157298491,
            "lng": 121.57334019732636
        },
        "precise": 1
    },
    {
        "address": "浦东新区南码头路119弄",
        "comprehension": 100,
        "confidence": 80,
        "district": "浦东新区",
        "location": {
            "lat": 31.20571310038603,
            "lng": 121.51461751698633
        },
        "precise": 1
    },
    {
        "address": "浦东新区临沂路8弄",
        "comprehension": 100,
        "confidence": 80,
        "district": "浦东新区",
        "location": {
            "lat": 31.207122826843737,
            "lng": 121.52099800136261
        },
        "precise": 1
    },
    {
        "address": "浦东新区云雅路395弄",
        "comprehension": 100,
        "confidence": 50,
        "district": "浦东新区",
        "location": {
            "lat": 31.249579409437324,
            "lng": 121.68425775152647
        },
        "precise": 0
    },
    {
        "address": "浦东新区上南路3300号",
        "comprehension": 100,
        "confidence": 80,
        "district": "浦东新区",
        "location": {
            "lat": 31.164360930441298,
            "lng": 121.50504580228588
        },
        "precise": 1
    },
    {
        "address": "浦东新区潍坊路375弄",
        "comprehension": 100,
        "confidence": 75,
        "district": "浦东新区",
        "location": {
            "lat": 31.241060658092152,
            "lng": 121.54780433608587
        },
        "precise": 1
    },