[
    {
        "address": "浦东新区联勤村冯桥队张家宅",
        "comprehension": 100,
        "confidence": 70,
        "district": "浦东新区",
        "location": {
            "lat": 31.171212397581485,
            "lng": 121.55744791522713
        },
        "precise": 1
    },
    {
        "address": "浦东新区凌河路354弄",
        "comprehension": 100,
        "confidence": 80,
        "district": "浦东新区",
        "location": {
            "lat": 31.279935494106077,
            "lng": 121.60602863652895
        },
        "precise": 1
    },
    {
        "address": "浦东新区西林村洪家队洪家新宅",
        "comprehension": 100,
        "confidence": 50,
        "district": "浦东新区",
        "location": {
            "lat": 31.13952467804987,
            "lng": 121.5046341987012
        },
        "precise": 0
    },
    {
        "address": "浦东新区联勤村冯家队冯家宅",
        "comprehension": 100,
        "confidence": 70,
        "district": "浦东新区",
        "location": {
            "lat": 31.171212397581485,
            "lng": 121.55744791522713
        },
        "precise": 1
    },
    {
        "address": "浦东新区中界村复兴队北宅",
        "comprehension": 100,
        "confidence": 75,
        "district": "浦东新区",
        "location": {
            "lat": 31.193715783941315,
            "lng": 121.57806672159766
        },
        "precise": 1
    },
    {
        "address": "浦东新区联勤村张家队张家宅",
        "comprehension": 100,
        "confidence": 50,
        "district": "浦东新区",
        "location": {
            "lat": 31.236233793114234,
            "lng": 121.69194760601408
        },
        "precise": 0
    },
    {
        "address": "浦东新区博华路999弄",
        "comprehension": 100,
        "confidence": 80,
        "district": "浦东新区",
        "location": {
            "lat": 31.17680629046571,
            "lng": 121.55711392523853
        },
        "precise": 1
    },
    {
        "address": "浦东新区新行路433弄",
        "comprehension": 100,
        "confidence": 80,
        "district": "浦东新区",
        "location": {
            "lat": 31.29969071392316,
            "lng": 121.6190927833911
        },
        "precise": 1
    },
    {
        "address": "浦东新区福缘路58号",
        "comprehension": 99,
        "confidence": 80,
        "district": "浦东新区",
        "location": {
            "lat": 31.042578691766398,
            "lng": 121.76356944237254
        },
        "precise": 0
    },
    {
        "address": "浦东新区闵家浜路70弄",
        "comprehension": 100,
        "confidence": 20,
        "district": "浦东新区",
        "location": {
            "lat": 31.227348292436346,
            "lng": 121.55045460683195
        },
        "precise": 0
    },
    {
        "address": "浦东新区鹤驰路99弄",
        "comprehension": 100,
        "confidence": 80,
        "district": "浦东新区",
        "location": {
            "lat": 31.084967271555595,
            "lng": 121.59974166575626
        },
        "precise": 1
    },
    {
        "address": "浦东新区柳杉路99弄",
        "comprehension": 100,
        "confidence": 80,
        "district": "浦东新区",
        "location": {
            "lat": 31.230508819026944,
            "lng": 121.57639722080737
        },
        "precise": 1
    },
    {
        "address": "浦东新区听悦路686弄",
        "comprehension": 100,
        "confidence": 50,
        "district": "浦东新区",
        "location": {
            "lat": 31.060316904304834,
            "lng": 121.74553889578945
        },
        "precise": 0
    },
    {
        "address": "浦东新区联勤村李家队李家宅",
        "comprehension": 24,
        "confidence": 50,
        "district": "浦东新区",
        "location": {
            "lat": 31.173231011079945,
            "lng": 121.55718596934042
        },
        "precise": 0
    },
    {
        "address": "浦东新区俱进路505弄",
        "comprehension": 100,
        "confidence": 80,
        "district": "浦东新区",
        "location": {
            "lat": 31.30695141678874,
            "lng": 121.62029983650487
        },
        "precise": 1
    },
    {
        "address": "浦东新区绿林路320弄",
        "comprehension": 100,
        "confidence": 80,
        "district": "浦东新区",
        "location": {
            "lat": 31.176162646734344,
            "lng": 121.55483474449859
        },
        "precise": 1
    },
    {
        "address": "浦东新区竹柏路100弄",
        "comprehension": 100,
        "confidence": 80,
        "district": "浦东新区",
        "location": {
            "lat": 30.907496658388855,
            "lng": 121.91924333394839
        },
        "precise": 1
    },
    {
        "address": "浦东新区东绣路1086弄",
        "comprehension": 100,
        "confidence": 80,
        "district": "浦东新区",
        "location": {
            "lat": 31.20526918311545,
            "lng": 121.5429417185298
        },
        "precise": 1
    },
    {
        "address": "浦东新区横桥村",
        "comprehension": 100,
        "confidence": 50,
        "district": "浦东新区",
        "location": {
            "lat": 31.10597884884191,
            "lng": 121.58289879676639
        },
        "precise": 0
    },
    {
        "address": "浦东新区成山路24弄",
        "comprehension": 100,
        "confidence": 80,
        "district": "浦东新区",
        "location": {
            "lat": 31.17414687706441,
            "lng": 121.49230899795155
        },
        "precise": 1
    },
    {
        "address": "浦东新区新陈路25弄",
        "comprehension": 100,
        "confidence": 80,
        "district": "浦东新区",
        "location": {
            "lat": 31.185333901761624,
            "lng": 121.56432875577246
        },
        "precise": 1
    },
    {
        "address": "浦东新区云山路999弄",
        "comprehension": 100,
        "confidence": 80,
        "district": "浦东新区",
        "location": {
            "lat": 31.258196243274657,
            "lng": 121.57850922689187
        },
        "precise": 1
    },
    {
        "address": "浦东新区芳草路258号",
        "comprehension": 100,
        "confidence": 80,
        "district": "浦东新区",
        "location": {
            "lat": 31.19953351173709,
            "lng": 121.56304902974296
        },
        "precise": 1
    },
    {
        "address": "浦东新区牡丹路259弄",
        "comprehension": 100,
        "confidence": 70,
        "district": "浦东新区",
        "location": {
            "lat": 31.214654701261765,
            "lng": 121.5558250364928
        },
        "precise": 1
    },
    {
        "address": "浦东新区下南路551弄",
        "comprehension": 100,
        "confidence": 70,
        "district": "浦东新区",
        "location": {
            "lat": 31.179016875274282,
            "lng": 121.54679904238965
        },
        "precise": 1
    },
    {
        "address": "浦东新区六里新村",
        "comprehension": 100,
        "confidence": 70,
        "district": "浦东新区",
        "location": {
            "lat": 31.1935978595526,
            "lng": 121.52368698907618
        },
        "precise": 1
    },
    {
        "address": "浦东新区上浦路202弄",
        "comprehension": 100,
        "confidence": 80,
        "district": "浦东新区",
        "location": {
            "lat": 31.150139999629182,
            "lng": 121.49871723996809
        },
        "precise": 1
    },
    {
        "address": "浦东新区张杨路77弄",
        "comprehension": 100,
        "confidence": 75,
        "district": "浦东新区",
        "location": {
            "lat": 31.231072269468587,
            "lng": 121.51675341799742
        },
        "precise": 1
    },
    {
        "address": "浦东新区栖山路1555弄",
        "comprehension": 100,
        "confidence": 75,
        "district": "浦东新区",
        "location": {
            "lat": 31.26442296656864,
            "lng": 121.57228558665764
        },
        "precise": 1
    },
    {
        "address": "浦东新区五星村陈家队陈家宅",
        "comprehension": 100,
        "confidence": 70,
        "district": "浦东新区",
        "location": {
            "lat": 31.194413133383005,
            "lng": 121.57857947438275
        },
        "precise": 1
    },
    {
        "address": "浦东新区栖山路1700弄",
        "comprehension": 100,
        "confidence": 80,
        "district": "浦东新区",
        "location": {
            "lat": 31.26538331496652,
            "lng": 121.57584134935779
        },
        "precise": 1
    },
    {
        "address": "浦东新区环桥路1137弄",
        "comprehension": 100,
        "confidence": 75,
        "district": "浦东新区",
        "location": {
            "lat": 31.141558886249566,
            "lng": 121.61003597740896
        },
        "precise": 1
    },
    {
        "address": "浦东新区仁怡苑",
        "comprehension": 100,
        "confidence": 70,
        "district": "浦东新区",
        "location": {
            "lat": 31.147278711220356,
            "lng": 121.62947872220583
        },
        "precise": 1
    },
    {
        "address": "浦东新区五星路151弄",
        "comprehension": 100,
        "confidence": 75,
        "district": "浦东新区",
        "location": {
            "lat": 31.179824783900496,
            "lng": 121.56852518996233
        },
        "precise": 1
    },
    {
        "address": "浦东新区长元村曹家宅",
        "comprehension": 100,
        "confidence": 70,
        "district": "浦东新区",
        "location": {
            "lat": 31.17533578243895,
            "lng": 121.65798824417598
        },
        "precise": 1
    },
    {
        "address": "浦东新区叠桥路456弄",
        "comprehension": 100,
        "confidence": 80,
        "district": "浦东新区",
        "location": {
            "lat": 31.13244030411136,
            "lng": 121.6291168847464
        },
        "precise": 1
    },
    {
        "address": "浦东新区下南路339弄",
        "comprehension": 100,
        "confidence": 80,
        "district": "浦东新区",
        "location": {
            "lat": 31.17679107417024,
            "lng": 121.55064127471694
        },
        "precise": 1
    },
    {
        "address": "浦东新区周浦镇北油车弄",
        "comprehension": 100,
        "confidence": 30,
        "district": "浦东新区",
        "location": {
            "lat": 31.12209680309921,
            "lng": 121.58411878547949
        },
        "precise": 0
    },
    {
        "address": "浦东新区上钢六村",
        "comprehension": 100,
        "confidence": 50,
        "district": "浦东新区",
        "location": {
            "lat": 31.17751720539573,
            "lng": 121.4953248790402
        },
        "precise": 0
    },
    {
        "address": "浦东新区沪南路911号",
        "comprehension": 100,
        "confidence": 80,
        "district": "浦东新区",
        "location": {
            "lat": 31.189725887745528,
            "lng": 121.56130496959533
        },
        "precise": 1
    },
    {
        "address": "浦东新区长泰东郊御园",
        "comprehension": 100,
        "confidence": 70,
        "district": "浦东新区",
        "location": {
            "lat": 31.030272850800415,
            "lng": 121.59630501836673
        },
        "precise": 1
    },
    {
        "address": "浦东新区花山路481弄",
        "comprehension": 100,
        "confidence": 80,
        "district": "浦东新区",
        "location": {
            "lat": 31.35316286671427,
            "lng": 121.57808199279133
        },
        "precise": 1
    },
    {
        "address": "浦东新区德州六村（高层）",
        "comprehension": 100,
        "confidence": 70,
        "district": "浦东新区",
        "location": {
            "lat": 31.171673624431897,
            "lng": 121.49849122630177
        },
        "precise": 1
    },
    {
        "address": "浦东新区杨莲路171号",
        "comprehension": 100,
        "confidence": 80,
        "district": "浦东新区",
        "location": {
            "lat": 31.176187054761556,
            "lng": 121.56117956614612
        },
        "precise": 1
    },
    {
        "address": "浦东新区金高路88号",
        "comprehension": 100,
        "confidence": 80,
        "district": "浦东新区",
        "location": {
            "lat": 31.302240883332892,
            "lng": 121.61276997022857
        },
        "precise": 1
    },
    {
        "address": "浦东新区高宝路68弄",
        "comprehension": 100,
        "confidence": 80,
        "district": "浦东新区",
        "location": {
            "lat": 31.29737066259963,
            "lng": 121.62729152795012
        },
        "precise": 1
    },
    {
        "address": "浦东新区莲溪路1099弄",
        "comprehension": 100,
        "confidence": 80,
        "district": "浦东新区",
        "location": {
            "lat": 31.18174774834683,
            "lng": 121.56986339568053
        },
        "precise": 1
    },
    {
        "address": "浦东新区奥纳路158号",
        "comprehension": 100,
        "confidence": 80,
        "district": "浦东新区",
        "location": {
            "lat": 31.35188285913821,
            "lng": 121.60183202267798
        },
        "precise": 1
    },
    {
        "address": "浦东新区康安路御北路交叉口工地",
        "comprehension": 57,
        "confidence": 30,
        "district": "浦东新区",
        "location": {
            "lat": 31.16393929723239,
            "lng": 121.56378599958333
        },
        "precise": 0
    },
    {
        "address": "浦东新区崂山二村",
        "comprehension": 100,
        "confidence": 50,
        "district": "浦东新区",
        "location": {
            "lat": 31.24201939404948,
            "lng": 121.52801547417602
        },
        "precise": 0
    },
    {
        "address": "浦东新区御桥村印家宅",
        "comprehension": 100,
        "confidence": 50,
        "district": "浦东新区",
        "location": {
            "lat": 31.21688593399776,
            "lng": 121.72035310420621
        },
        "precise": 0
    },
    {
        "address": "浦东新区御青路1051弄",
        "comprehension": 100,
        "confidence": 75,
        "district": "浦东新区",
        "location": {
            "lat": 31.15801174332688,
            "lng": 121.58052268886195
        },
        "precise": 1
    },
    {
        "address": "浦东新区芳华路478弄",
        "comprehension": 100,
        "confidence": 70,
        "district": "浦东新区",
        "location": {
            "lat": 31.202311740049833,
            "lng": 121.5667081874073
        },
        "precise": 1
    },
    {
        "address": "浦东新区五星路239弄",
        "comprehension": 100,
        "confidence": 80,
        "district": "浦东新区",
        "location": {
            "lat": 31.181781423237346,
            "lng": 121.56995448385925
        },
        "precise": 1
    },
    {
        "address": "浦东新区秀沿西路68弄",
        "comprehension": 100,
        "confidence": 80,
        "district": "浦东新区",
        "location": {
            "lat": 31.137587866279553,
            "lng": 121.5437560324746
        },
        "precise": 1
    },
    {
        "address": "浦东新区牡丹路418弄",
        "comprehension": 100,
        "confidence": 80,
        "district": "浦东新区",
        "location": {
            "lat": 31.214454884475945,
            "lng": 121.55822099694902
        },
        "precise": 1
    },
    {
        "address": "浦东新区北蔡镇丁家队丁家宅",
        "comprehension": 100,
        "confidence": 50,
        "district": "浦东新区",
        "location": {
            "lat": 31.192184222632797,
            "lng": 121.56985791601693
        },
        "precise": 0
    },
    {
        "address": "浦东新区崂山五村",
        "comprehension": 100,
        "confidence": 70,
        "district": "浦东新区",
        "location": {
            "lat": 31.242727884421647,
            "lng": 121.52356526867958
        },
        "precise": 1
    },
    {
        "address": "浦东新区芳华路503弄",
        "comprehension": 100,
        "confidence": 70,
        "district": "浦东新区",
        "location": {
            "lat": 31.202721231796424,
            "lng": 121.56725381817404
        },
        "precise": 1
    },
    {
        "address": "浦东新区牡丹路145弄",
        "comprehension": 100,
        "confidence": 80,
        "district": "浦东新区",
        "location": {
            "lat": 31.21356574093363,
            "lng": 121.55178149390075
        },
        "precise": 1
    },
    {
        "address": "浦东新区潍坊一村",
        "comprehension": 100,
        "confidence": 50,
        "district": "浦东新区",
        "location": {
            "lat": 31.223541175573178,
            "lng": 121.52940254771397
        },
        "precise": 0
    },
    {
        "address": "浦东新区行南路1150弄",
        "comprehension": 100,
        "confidence": 50,
        "district": "浦东新区",
        "location": {
            "lat": 31.333777228864584,
            "lng": 121.58830435017268
        },
        "precise": 0
    },
    {
        "address": "浦东新区顾全路377号",
        "comprehension": 100,
        "confidence": 80,
        "district": "浦东新区",
        "location": {
            "lat": 31.177709685998828,
            "lng": 121.54587288940887
        },
        "precise": 1
    },
    {
        "address": "浦东新区御水路555弄",
        "comprehension": 100,
        "confidence": 50,
        "district": "浦东新区",
        "location": {
            "lat": 31.160305200831736,
            "lng": 121.58232702530928
        },
        "precise": 0
    },
    {
        "address": "浦东新区周康二村",
        "comprehension": 100,
        "confidence": 70,
        "district": "浦东新区",
        "location": {
            "lat": 31.14536183948952,
            "lng": 121.57627100888321
        },
        "precise": 1
    },
    {
        "address": "浦东新区芳华路573弄",
        "comprehension": 100,
        "confidence": 80,
        "district": "浦东新区",
        "location": {
            "lat": 31.202881074402363,
            "lng": 121.56906579021823
        },
        "precise": 1
    },
    {
        "address": "浦东新区国展路1776号工地",
        "comprehension": 94,
        "confidence": 80,
        "district": "浦东新区",
        "location": {
            "lat": 31.188922647488646,
            "lng": 121.49656676797295
        },
        "precise": 0
    },
    {
        "address": "浦东新区锦绣路3338弄",
        "comprehension": 100,
        "confidence": 80,
        "district": "浦东新区",
        "location": {
            "lat": 31.185490375783257,
            "lng": 121.54528809252187
        },
        "precise": 1
    },
    {
        "address": "浦东新区御青路918弄",
        "comprehension": 100,
        "confidence": 80,
        "district": "浦东新区",
        "location": {
            "lat": 31.158767840355527,
            "lng": 121.581132278981
        },
        "precise": 1
    },
    {
        "address": "浦东新区京浦路160弄",
        "comprehension": 100,
        "confidence": 80,
        "district": "浦东新区",
        "location": {
            "lat": 31.159244502051745,
            "lng": 121.57470912509302
        },
        "precise": 1
    },
    {
        "address": "浦东新区康士路15弄",
        "comprehension": 100,
        "confidence": 80,
        "district": "浦东新区",
        "location": {
            "lat": 31.15566839870212,
            "lng": 121.56951673958423
        },
        "precise": 1
    },
    {
        "address": "浦东新区严中路269弄",
        "comprehension": 100,
        "confidence": 80,
        "district": "浦东新区",
        "location": {
            "lat": 31.19614320172997,
            "lng": 121.53941200668945
        },
        "precise": 1
    },
    {
        "address": "浦东新区浦建路60弄",
        "comprehension": 100,
        "confidence": 80,
        "district": "浦东新区",
        "location": {
            "lat": 31.213159230587877,
            "lng": 121.52445369282894
        },
        "precise": 1
    },
    {
        "address": "浦东新区杨新路197弄",
        "comprehension": 100,
        "confidence": 80,
        "district": "浦东新区",
        "location": {
            "lat": 31.168845590720398,
            "lng": 121.4985201517392
        },
        "precise": 1
    },
    {
        "address": "浦东新区芳华路916弄",
        "comprehension": 100,
        "confidence": 80,
        "district": "浦东新区",
        "location": {
            "lat": 31.202853893456744,
            "lng": 121.57459800470143
        },
        "precise": 1
    },
    {
        "address": "浦东新区康桥路1657弄",
        "comprehension": 100,
        "confidence": 70,
        "district": "浦东新区",
        "location": {
            "lat": 31.15677904566245,
            "lng": 121.59033721554175
        },
        "precise": 1
    },
    {
        "address": "浦东新区花木南杨家堂",
        "comprehension": 100,
        "confidence": 50,
        "district": "浦东新区",
        "location": {
            "lat": 31.20272323948302,
            "lng": 121.55896380577522
        },
        "precise": 0
    },
    {
        "address": "浦东新区上南一村",
        "comprehension": 100,
        "confidence": 50,
        "district": "浦东新区",
        "location": {
            "lat": 31.18055892427698,
            "lng": 121.50219817381924
        },
        "precise": 0
    },
    {
        "address": "浦东新区紫叶路81弄",
        "comprehension": 100,
        "confidence": 80,
        "district": "浦东新区",
        "location": {
            "lat": 31.18971870540851,
            "lng": 121.55772216789933
        },
        "precise": 1
    },
    {
        "address": "浦东新区御桥村东焦家宅",
        "comprehension": 100,
        "confidence": 50,
        "district": "浦东新区",
        "location": {
            "lat": 31.171177560224304,
            "lng": 121.56259664308811
        },
        "precise": 0
    },
    {
        "address": "浦东新区京浦路82弄",
        "comprehension": 100,
        "confidence": 75,
        "district": "浦东新区",
        "location": {
            "lat": 31.15969157298491,
            "lng": 121.57334019732636
        },
        "precise": 1
    },
    {
        "address": "浦东新区夏栎路233弄",
        "comprehension": 100,
        "confidence": 80,
        "district": "浦东新区",
        "location": {
            "lat": 30.91643082948993,
            "lng": 121.9219500182805
        },
        "precise": 1
    },
    {
        "address": "浦东新区懿德村小陈家队",
        "comprehension": 100,
        "confidence": 50,
        "district": "浦东新区",
        "location": {
            "lat": 31.1243504097577,
            "lng": 121.52472668787344
        },
        "precise": 0
    },
    {
        "address": "浦东新区康花路康安路交叉路口工地",
        "comprehension": 57,
        "confidence": 30,
        "district": "浦东新区",
        "location": {
            "lat": 31.155335032083627,
            "lng": 121.56308711789656
        },
        "precise": 0
    },
    {
        "address": "浦东新区庭安路825弄",
        "comprehension": 100,
        "confidence": 50,
        "district": "浦东新区",
        "location": {
            "lat": 31.330672092612215,
            "lng": 121.60219754318999
        },
        "precise": 0
    },
    {
        "address": "浦东新区康杉路151弄",
        "comprehension": 100,
        "confidence": 80,
        "district": "浦东新区",
        "location": {
            "lat": 31.15772404321492,
            "lng": 121.56730133853553
        },
        "precise": 1
    },
    {
        "address": "浦东新区南阜村高树队油车头",
        "comprehension": 100,
        "confidence": 50,
        "district": "浦东新区",
        "location": {
            "lat": 31.136351345808084,
            "lng": 121.52688154313076
        },
        "precise": 0
    },
    {
        "address": "浦东新区环林东路879弄",
        "comprehension": 100,
        "confidence": 80,
        "district": "浦东新区",
        "location": {
            "lat": 31.144278100822874,
            "lng": 121.53643753748482
        },
        "precise": 1
    },
    {
        "address": "浦东新区新浦路350弄",
        "comprehension": 100,
        "confidence": 70,
        "district": "浦东新区",
        "location": {
            "lat": 31.177803917931705,
            "lng": 121.54104081424015
        },
        "precise": 1
    },
    {
        "address": "浦东新区杨高中路10弄1支弄",
        "comprehension": 100,
        "confidence": 80,
        "district": "浦东新区",
        "location": {
            "lat": 31.263420011224802,
            "lng": 121.60637358584478
        },
        "precise": 1
    },
    {
        "address": "浦东新区严杨路45弄",
        "comprehension": 100,
        "confidence": 70,
        "district": "浦东新区",
        "location": {
            "lat": 31.200106183473142,
            "lng": 121.53366581583377
        },
        "precise": 1
    },
    {
        "address": "浦东新区莲园路100弄",
        "comprehension": 100,
        "confidence": 80,
        "district": "浦东新区",
        "location": {
            "lat": 31.18933340697378,
            "lng": 121.55499069033515
        },
        "precise": 1
    },
    {
        "address": "浦东新区莲溪路126弄",
        "comprehension": 100,
        "confidence": 70,
        "district": "浦东新区",
        "location": {
            "lat": 31.193483178521433,
            "lng": 121.56566040386045
        },
        "precise": 1
    },
    {
        "address": "浦东新区罗山路1700弄",
        "comprehension": 100,
        "confidence": 80,
        "district": "浦东新区",
        "location": {
            "lat": 31.231436321956892,
            "lng": 121.57507257950235
        },
        "precise": 1
    },
    {
        "address": "浦东新区沪南路577弄",
        "comprehension": 100,
        "confidence": 70,
        "district": "浦东新区",
        "location": {
            "lat": 31.196656740843373,
            "lng": 121.55841799534736
        },
        "precise": 1
    },
    {
        "address": "浦东新区芳芯路251弄",
        "comprehension": 100,
        "confidence": 80,
        "district": "浦东新区",
        "location": {
            "lat": 31.19846669279656,
            "lng": 121.5630040246369
        },
        "precise": 1
    },
    {
        "address": "浦东新区御青路999弄",
        "comprehension": 100,
        "confidence": 80,
        "district": "浦东新区",
        "location": {
            "lat": 31.16029762997253,
            "lng": 121.5795247612709
        },
        "precise": 1
    },
    {
        "address": "浦东新区张杨路3680弄",
        "comprehension": 100,
        "confidence": 70,
        "district": "浦东新区",
        "location": {
            "lat": 31.261073129280504,
            "lng": 121.58666512227806
        },
        "precise": 1
    },
    {
        "address": "浦东新区南新村",
        "comprehension": 100,
        "confidence": 50,
        "district": "浦东新区",
        "location": {
            "lat": 31.360191454559764,
            "lng": 121.52662561589096
        },
        "precise": 0
    },
    {
        "address": "浦东新区启帆路321号",
        "comprehension": 100,
        "confidence": 80,
        "district": "浦东新区",
        "location": {
            "lat": 31.318915467960775,
            "lng": 121.59141329571216
        },
        "precise": 1
    },
    {
        "address": "浦东新区枣庄路399弄",
        "comprehension": 100,
        "confidence": 75,
        "district": "浦东新区",
        "location": {
            "lat": 31.261941757193952,
            "lng": 121.58471220609937
        },
        "precise": 1
    },
    {
        "address": "浦东新区永泰路538弄",
        "comprehension": 100,
        "confidence": 80,
        "district": "浦东新区",
        "location": {
            "lat": 31.144658871116935,
            "lng": 121.52252754615445
        },
        "precise": 1
    },
    {
        "address": "浦东新区花木路809号",
        "comprehension": 100,
        "confidence": 80,
        "district": "浦东新区",
        "location": {
            "lat": 31.217402988093205,
            "lng": 121.5572963710876
        },
        "precise": 1
    },
    {
        "address": "浦东新区陈春路221弄",
        "comprehension": 100,
        "confidence": 80,
        "district": "浦东新区",
        "location": {
            "lat": 31.179594152186283,
            "lng": 121.55951033484749
        },
        "precise": 1
    },
    {
        "address": "浦东新区康杉路386弄",
        "comprehension": 100,
        "confidence": 80,
        "district": "浦东新区",
        "location": {
            "lat": 31.15791919113146,
            "lng": 121.56535264439273
        },
        "precise": 1
    },
    {
        "address": "浦东新区芳华路411弄",
        "comprehension": 100,
        "confidence": 80,
        "district": "浦东新区",
        "location": {
            "lat": 31.202399460853744,
            "lng": 121.56557030381781
        },
        "precise": 1
    },
    {
        "address": "浦东新区新浦路199弄",
        "comprehension": 100,
        "confidence": 80,
        "district": "浦东新区",
        "location": {
            "lat": 31.1712264561122,
            "lng": 121.54524578233234
        },
        "precise": 1
    },
    {
        "address": "浦东新区拱北路398弄",
        "comprehension": 100,
        "confidence": 80,
        "district": "浦东新区",
        "location": {
            "lat": 31.063830826223597,
            "lng": 121.77744697699553
        },
        "precise": 1
    },
    {
        "address": "浦东新区高东二路118弄",
        "comprehension": 100,
        "confidence": 50,
        "district": "浦东新区",
        "location": {
            "lat": 31.32990867036808,
            "lng": 121.63203026917635
        },
        "precise": 0
    },
    {
        "address": "浦东新区上南路6620弄",
        "comprehension": 100,
        "confidence": 70,
        "district": "浦东新区",
        "location": {
            "lat": 31.125101831813367,
            "lng": 121.55999802490886
        },
        "precise": 1
    },
    {
        "address": "浦东新区上南路6333弄",
        "comprehension": 100,
        "confidence": 50,
        "district": "浦东新区",
        "location": {
            "lat": 31.12568724594242,
            "lng": 121.55571167033744
        },
        "precise": 0
    },
    {
        "address": "浦东新区沪南路3161弄",
        "comprehension": 100,
        "confidence": 70,
        "district": "浦东新区",
        "location": {
            "lat": 31.163874097644317,
            "lng": 121.56764332344318
        },
        "precise": 1
    },
    {
        "address": "浦东新区五星村徐家队顾家宅",
        "comprehension": 100,
        "confidence": 50,
        "district": "浦东新区",
        "location": {
            "lat": 31.191014451882285,
            "lng": 121.56739566061408
        },
        "precise": 0
    },
    {
        "address": "浦东新区康新公路88号",
        "comprehension": 100,
        "confidence": 80,
        "district": "浦东新区",
        "location": {
            "lat": 31.14765182020036,
            "lng": 121.61866501030725
        },
        "precise": 1
    },
    {
        "address": "浦东新区川周公路3083号",
        "comprehension": 100,
        "confidence": 80,
        "district": "浦东新区",
        "location": {
            "lat": 31.144310707430428,
            "lng": 121.61405733185492
        },
        "precise": 1
    },
    {
        "address": "浦东新区凌兆路555弄",
        "comprehension": 100,
        "confidence": 75,
        "district": "浦东新区",
        "location": {
            "lat": 31.150254347365593,
            "lng": 121.50815052578945
        },
        "precise": 1
    },
    {
        "address": "浦东新区杨莲路310弄",
        "comprehension": 100,
        "confidence": 70,
        "district": "浦东新区",
        "location": {
            "lat": 31.191202039394238,
            "lng": 121.56085015751562
        },
        "precise": 1
    },
    {
        "address": "浦东新区三林镇小金家宅",
        "comprehension": 100,
        "confidence": 50,
        "district": "浦东新区",
        "location": {
            "lat": 31.12994199578137,
            "lng": 121.48845769273862
        },
        "precise": 0
    },
    {
        "address": "浦东新区德州路380弄",
        "comprehension": 100,
        "confidence": 70,
        "district": "浦东新区",
        "location": {
            "lat": 31.171454327607343,
            "lng": 121.4933411509825
        },
        "precise": 1
    },
    {
        "address": "浦东新区浦电路489号",
        "comprehension": 100,
        "confidence": 80,
        "district": "浦东新区",
        "location": {
            "lat": 31.228541386204874,
            "lng": 121.54141801272378
        },
        "precise": 1
    },
    {
        "address": "浦东新区浦东大道1623弄",
        "comprehension": 100,
        "confidence": 80,
        "district": "浦东新区",
        "location": {
            "lat": 31.25176759291442,
            "lng": 121.54904390785909
        },
        "precise": 1
    },
    {
        "address": "浦东新区卢家油车",
        "comprehension": 100,
        "confidence": 50,
        "district": "浦东新区",
        "location": {
            "lat": 31.130072519334625,
            "lng": 121.53315971050945
        },
        "precise": 0
    },
    {
        "address": "浦东新区上南路5588号",
        "comprehension": 100,
        "confidence": 80,
        "district": "浦东新区",
        "location": {
            "lat": 31.12914416758575,
            "lng": 121.53410068553116
        },
        "precise": 1
    },
    {
        "address": "浦东新区德州路255弄",
        "comprehension": 100,
        "confidence": 80,
        "district": "浦东新区",
        "location": {
            "lat": 31.176228764666757,
            "lng": 121.49763226657313
        },
        "precise": 1
    },
    {
        "address": "浦东新区上南路3521号",
        "comprehension": 100,
        "confidence": 80,
        "district": "浦东新区",
        "location": {
            "lat": 31.161595328123152,
            "lng": 121.51158546639851
        },
        "precise": 1
    },
    {
        "address": "浦东新区严镇路96弄",
        "comprehension": 100,
        "confidence": 80,
        "district": "浦东新区",
        "location": {
            "lat": 31.19681134259362,
            "lng": 121.53555845571275
        },
        "precise": 1
    },
    {
        "address": "浦东新区五星村三联队黄家宅",
        "comprehension": 18,
        "confidence": 50,
        "district": "浦东新区",
        "location": {
            "lat": 31.179988450201478,
            "lng": 121.57836549801027
        },
        "precise": 0
    },
    {
        "address": "浦东新区梅园三村",
        "comprehension": 100,
        "confidence": 70,
        "district": "浦东新区",
        "location": {
            "lat": 31.245205127170653,
            "lng": 121.52884991016424
        },
        "precise": 1
    },
    {
        "address": "浦东新区杨南路689弄",
        "comprehension": 100,
        "confidence": 80,
        "district": "浦东新区",
        "location": {
            "lat": 31.15691772109531,
            "lng": 121.50710462868419
        },
        "precise": 1
    },
    {
        "address": "浦东新区下南路161弄",
        "comprehension": 100,
        "confidence": 80,
        "district": "浦东新区",
        "location": {
            "lat": 31.172731479156155,
            "lng": 121.54990421504598
        },
        "precise": 1
    },
    {
        "address": "浦东新区东方路1881弄",
        "comprehension": 100,
        "confidence": 80,
        "district": "浦东新区",
        "location": {
            "lat": 31.20094881383694,
            "lng": 121.53235680504463
        },
        "precise": 1
    },
    {
        "address": "浦东新区锦安东路280弄",
        "comprehension": 100,
        "confidence": 80,
        "district": "浦东新区",
        "location": {
            "lat": 31.20801179992383,
            "lng": 121.55033746779345
        },
        "precise": 1
    },
    {
        "address": "浦东新区云舒苑",
        "comprehension": 100,
        "confidence": 70,
        "district": "浦东新区",
        "location": {
            "lat": 31.24142047115864,
            "lng": 121.73201335339108
        },
        "precise": 1
    },
    {
        "address": "浦东新区严杨路166弄",
        "comprehension": 100,
        "confidence": 70,
        "district": "浦东新区",
        "location": {
            "lat": 31.20036688077375,
            "lng": 121.53619499499712
        },
        "precise": 1
    },
    {
        "address": "浦东新区浦东南路1288号",
        "comprehension": 100,
        "confidence": 80,
        "district": "浦东新区",
        "location": {
            "lat": 31.230896186745355,
            "lng": 121.52355987884653
        },
        "precise": 1
    },
    {
        "address": "浦东新区潍坊二村",
        "comprehension": 100,
        "confidence": 50,
        "district": "浦东新区",
        "location": {
            "lat": 31.225268467051112,
            "lng": 121.52567089679496
        },
        "precise": 0
    },
    {
        "address": "浦东新区昌里东路190弄",
        "comprehension": 100,
        "confidence": 75,
        "district": "浦东新区",
        "location": {
            "lat": 31.181876268964892,
            "lng": 121.514451330467
        },
        "precise": 1
    },
    {
        "address": "浦东新区花木路830弄",
        "comprehension": 100,
        "confidence": 70,
        "district": "浦东新区",
        "location": {
            "lat": 31.21682563528285,
            "lng": 121.5586974581915
        },
        "precise": 1
    },
    {
        "address": "浦东新区瑞浦路287弄",
        "comprehension": 100,
        "confidence": 50,
        "district": "浦东新区",
        "location": {
            "lat": 31.10465062174646,
            "lng": 121.59057346989087
        },
        "precise": 0
    },
    {
        "address": "浦东新区高桥二村",
        "comprehension": 100,
        "confidence": 70,
        "district": "浦东新区",
        "location": {
            "lat": 31.351847009729774,
            "lng": 121.5833731919062
        },
        "precise": 1
    },
    {
        "address": "浦东新区",
        "comprehension": 100,
        "confidence": 20,
        "district": "浦东新区",
        "location": {
            "lat": 31.227348292436346,
            "lng": 121.55045460683195
        },
        "precise": 0
    },
    {
        "address": "黄浦区丽园路873号",
        "comprehension": 100,
        "confidence": 80,
        "district": "黄浦区",
        "location": {
            "lat": 31.212775263924414,
            "lng": 121.48254324926093
        },
        "precise": 1
    },
    {
        "address": "黄浦区丽园路871号",
        "comprehension": 100,
        "confidence": 80,
        "district": "黄浦区",
        "location": {
            "lat": 31.21267844199958,
            "lng": 121.48247138482013
        },
        "precise": 1
    },
    {
        "address": "黄浦区蒙自西路28弄3号",
        "comprehension": 57,
        "confidence": 70,
        "district": "黄浦区",
        "location": {
            "lat": 31.212915864005417,
            "lng": 121.48257010859568
        },
        "precise": 1
    },
    {
        "address": "黄浦区南仓街40弄",
        "comprehension": 100,
        "confidence": 80,
        "district": "黄浦区",
        "location": {
            "lat": 31.219582736936758,
            "lng": 121.50696251675251
        },
        "precise": 1
    },
    {
        "address": "黄浦区顺昌路612弄36号",
        "comprehension": 100,
        "confidence": 30,
        "district": "黄浦区",
        "location": {
            "lat": 31.220331389007576,
            "lng": 121.4855653286576
        },
        "precise": 0
    },
    {
        "address": "黄浦区鲁班路388弄5号",
        "comprehension": 57,
        "confidence": 50,
        "district": "黄浦区",
        "location": {
            "lat": 31.20720961656158,
            "lng": 121.48204019817534
        },
        "precise": 0
    },
    {
        "address": "黄浦区兴安路98弄",
        "comprehension": 100,
        "confidence": 80,
        "district": "黄浦区",
        "location": {
            "lat": 31.227265458509372,
            "lng": 121.47735140273545
        },
        "precise": 1
    },
    {
        "address": "黄浦区蓬莱路405弄",
        "comprehension": 100,
        "confidence": 50,
        "district": "黄浦区",
        "location": {
            "lat": 31.2220148113367,
            "lng": 121.49387914615244
        },
        "precise": 0
    },
    {
        "address": "黄浦区四牌楼路79号",
        "comprehension": 100,
        "confidence": 80,
        "district": "黄浦区",
        "location": {
            "lat": 31.22981158397097,
            "lng": 121.50202426187252
        },
        "precise": 1
    },
    {
        "address": "黄浦区蒙自路601弄",
        "comprehension": 100,
        "confidence": 80,
        "district": "黄浦区",
        "location": {
            "lat": 31.205122548647797,
            "lng": 121.48752812619689
        },
        "precise": 1
    },
    {
        "address": "黄浦区局门后路62号",
        "comprehension": 100,
        "confidence": 80,
        "district": "黄浦区",
        "location": {
            "lat": 31.214170368726226,
            "lng": 121.48771982459273
        },
        "precise": 1
    },
    {
        "address": "黄浦区淡水路332弄5号",
        "comprehension": 57,
        "confidence": 70,
        "district": "黄浦区",
        "location": {
            "lat": 31.220454143596807,
            "lng": 121.47883953564327
        },
        "precise": 1
    },
    {
        "address": "黄浦区中华路868弄30-35号",
        "comprehension": 13,
        "confidence": 70,
        "district": "黄浦区",
        "location": {
            "lat": 31.22900364322812,
            "lng": 121.50512117011817
        },
        "precise": 1
    },
    {
        "address": "黄浦区",
        "comprehension": 100,
        "confidence": 20,
        "district": "黄浦区",
        "location": {
            "lat": 31.23724715206362,
            "lng": 121.49158559252436
        },
        "precise": 0
    },
    {
        "address": "静安区普善路239弄",
        "comprehension": 100,
        "confidence": 80,
        "district": "静安区",
        "location": {
            "lat": 31.26329530663027,
            "lng": 121.46395694893728
        },
        "precise": 1
    },
    {
        "address": "静安区芷江西路593弄",
        "comprehension": 100,
        "confidence": 80,
        "district": "静安区",
        "location": {
            "lat": 31.263127464478224,
            "lng": 121.46134323922544
        },
        "precise": 1
    },
    {
        "address": "静安区毛家弄26号",
        "comprehension": 100,
        "confidence": 80,
        "district": "静安区",
        "location": {
            "lat": 31.262662443681407,
            "lng": 121.45930435520944
        },
        "precise": 1
    },
    {
        "address": "静安区毛家弄4号",
        "comprehension": 100,
        "confidence": 80,
        "district": "静安区",
        "location": {
            "lat": 31.264815441200525,
            "lng": 121.4610197594113
        },
        "precise": 1
    },
    {
        "address": "静安区中华新路893弄",
        "comprehension": 100,
        "confidence": 80,
        "district": "静安区",
        "location": {
            "lat": 31.261228396340947,
            "lng": 121.46198462935958
        },
        "precise": 1
    },
    {
        "address": "静安区普善路铁路新村27号",
        "comprehension": 100,
        "confidence": 75,
        "district": "静安区",
        "location": {
            "lat": 31.262670623622483,
            "lng": 121.46003063521428
        },
        "precise": 1
    },
    {
        "address": "静安区普善路铁路新村17号",
        "comprehension": 57,
        "confidence": 70,
        "district": "静安区",
        "location": {
            "lat": 31.2627410791231,
            "lng": 121.45974452490934
        },
        "precise": 1
    },
    {
        "address": "静安区普善路铁路新村正29号",
        "comprehension": 57,
        "confidence": 70,
        "district": "静安区",
        "location": {
            "lat": 31.2627410791231,
            "lng": 121.45974452490934
        },
        "precise": 1
    },
    {
        "address": "静安区中华新路793弄",
        "comprehension": 100,
        "confidence": 80,
        "district": "静安区",
        "location": {
            "lat": 31.260247786376155,
            "lng": 121.4642960592673
        },
        "precise": 1
    },
    {
        "address": "静安区中华新路939弄",
        "comprehension": 100,
        "confidence": 80,
        "district": "静安区",
        "location": {
            "lat": 31.261891982624878,
            "lng": 121.46199801411167
        },
        "precise": 1
    },
    {
        "address": "静安区大统路938弄",
        "comprehension": 100,
        "confidence": 80,
        "district": "静安区",
        "location": {
            "lat": 31.26044272075746,
            "lng": 121.46501793757511
        },
        "precise": 1
    },
    {
        "address": "静安区江场西路1366弄",
        "comprehension": 100,
        "confidence": 50,
        "district": "静安区",
        "location": {
            "lat": 31.301858208090962,
            "lng": 121.43197763210426
        },
        "precise": 0
    },
    {
        "address": "静安区南京西路778号",
        "comprehension": 100,
        "confidence": 80,
        "district": "静安区",
        "location": {
            "lat": 31.23732542293344,
            "lng": 121.46819344755289
        },
        "precise": 1
    },
    {
        "address": "静安区光复路909号",
        "comprehension": 100,
        "confidence": 80,
        "district": "静安区",
        "location": {
            "lat": 31.245492018437652,
            "lng": 121.46226373288152
        },
        "precise": 1
    },
    {
        "address": "静安区普善路铁路新村21号",
        "comprehension": 100,
        "confidence": 75,
        "district": "静安区",
        "location": {
            "lat": 31.262430472601366,
            "lng": 121.45931261962014
        },
        "precise": 1
    },
    {
        "address": "静安区芷江西路678号",
        "comprehension": 100,
        "confidence": 80,
        "district": "静安区",
        "location": {
            "lat": 31.261979261735473,
            "lng": 121.46187153269587
        },
        "precise": 1
    },
    {
        "address": "静安区芷江西路521弄",
        "comprehension": 100,
        "confidence": 75,
        "district": "静安区",
        "location": {
            "lat": 31.263079311087917,
            "lng": 121.4627572619287
        },
        "precise": 1
    },
    {
        "address": "静安区新闸路1132号",
        "comprehension": 100,
        "confidence": 80,
        "district": "静安区",
        "location": {
            "lat": 31.239393556418825,
            "lng": 121.46091205258065
        },
        "precise": 1
    },
    {
        "address": "静安区康定东路3弄",
        "comprehension": 100,
        "confidence": 20,
        "district": "静安区",
        "location": {
            "lat": 31.233844930401652,
            "lng": 121.45343177276851
        },
        "precise": 0
    },
    {
        "address": "静安区灵石路737弄",
        "comprehension": 100,
        "confidence": 80,
        "district": "静安区",
        "location": {
            "lat": 31.29044580415785,
            "lng": 121.44532977571292
        },
        "precise": 1
    },
    {
        "address": "静安区普善路铁路新村12号",
        "comprehension": 100,
        "confidence": 75,
        "district": "静安区",
        "location": {
            "lat": 31.2620678526503,
            "lng": 121.46104356450732
        },
        "precise": 1
    },
    {
        "address": "静安区中山北路899弄",
        "comprehension": 100,
        "confidence": 50,
        "district": "静安区",
        "location": {
            "lat": 31.268675047373453,
            "lng": 121.46215180401498
        },
        "precise": 0
    },
    {
        "address": "静安区虬江路1488号",
        "comprehension": 100,
        "confidence": 80,
        "district": "静安区",
        "location": {
            "lat": 31.255813884045224,
            "lng": 121.47134703887622
        },
        "precise": 1
    },
    {
        "address": "静安区武定路44弄",
        "comprehension": 100,
        "confidence": 80,
        "district": "静安区",
        "location": {
            "lat": 31.243054765358266,
            "lng": 121.46535255637758
        },
        "precise": 1
    },
    {
        "address": "静安区永兴小马路70号",
        "comprehension": 100,
        "confidence": 80,
        "district": "静安区",
        "location": {
            "lat": 31.25751356889404,
            "lng": 121.4708687810227
        },
        "precise": 1
    },
    {
        "address": "静安区天目中路790号",
        "comprehension": 100,
        "confidence": 80,
        "district": "静安区",
        "location": {
            "lat": 31.251435648652805,
            "lng": 121.46706544532401
        },
        "precise": 1
    },
    {
        "address": "静安区平顺路790弄",
        "comprehension": 100,
        "confidence": 50,
        "district": "静安区",
        "location": {
            "lat": 31.32375973165818,
            "lng": 121.45939229931888
        },
        "precise": 0
    },
    {
        "address": "静安区汶水路556号",
        "comprehension": 100,
        "confidence": 80,
        "district": "静安区",
        "location": {
            "lat": 31.29548725626918,
            "lng": 121.43852376401658
        },
        "precise": 1
    },
    {
        "address": "静安区愚园路611弄",
        "comprehension": 100,
        "confidence": 80,
        "district": "静安区",
        "location": {
            "lat": 31.22761817767676,
            "lng": 121.44474201441774
        },
        "precise": 1
    },
    {
        "address": "静安区",
        "comprehension": 100,
        "confidence": 20,
        "district": "静安区",
        "location": {
            "lat": 31.233844930401652,
            "lng": 121.45343177276851
        },
        "precise": 0
    },
    {
        "address": "徐汇区正阳路47弄",
        "comprehension": 100,
        "confidence": 80,
        "district": "徐汇区",
        "location": {
            "lat": 31.206765124018563,
            "lng": 121.47003583744998
        },
        "precise": 1
    },
    {
        "address": "徐汇区梅陇四村",
        "comprehension": 100,
        "confidence": 50,
        "district": "徐汇区",
        "location": {
            "lat": 31.142782434378194,
            "lng": 121.42777356231757
        },
        "precise": 0
    },
    {
        "address": "徐汇区柳州路128弄",
        "comprehension": 100,
        "confidence": 80,
        "district": "徐汇区",
        "location": {
            "lat": 31.165360312542735,
            "lng": 121.43288267490557
        },
        "precise": 1
    },
    {
        "address": "徐汇区古宜路180弄",
        "comprehension": 100,
        "confidence": 80,
        "district": "徐汇区",
        "location": {
            "lat": 31.193157360065012,
            "lng": 121.43152901833258
        },
        "precise": 1
    },
    {
        "address": "徐汇区龙吴路1343弄",
        "comprehension": 100,
        "confidence": 80,
        "district": "徐汇区",
        "location": {
            "lat": 31.142578291870645,
            "lng": 121.45733616783708
        },
        "precise": 1
    },
    {
        "address": "徐汇区梅陇九村",
        "comprehension": 100,
        "confidence": 70,
        "district": "徐汇区",
        "location": {
            "lat": 31.136743043749814,
            "lng": 121.42915847992231
        },
        "precise": 1
    },
    {
        "address": "徐汇区龙吴路2588弄",
        "comprehension": 100,
        "confidence": 50,
        "district": "徐汇区",
        "location": {
            "lat": 31.12014463833439,
            "lng": 121.46294896032454
        },
        "precise": 0
    },
    {
        "address": "徐汇区梅陇路565弄",
        "comprehension": 100,
        "confidence": 80,
        "district": "徐汇区",
        "location": {
            "lat": 31.14331882790522,
            "lng": 121.42283099557112
        },
        "precise": 1
    },
    {
        "address": "徐汇区龙吴路2418弄",
        "comprehension": 100,
        "confidence": 80,
        "district": "徐汇区",
        "location": {
            "lat": 31.125376030198847,
            "lng": 121.46907800898856
        },
        "precise": 1
    },
    {
        "address": "徐汇区东安一村",
        "comprehension": 100,
        "confidence": 70,
        "district": "徐汇区",
        "location": {
            "lat": 31.195351033168695,
            "lng": 121.4637655200331
        },
        "precise": 1
    },
    {
        "address": "徐汇区瑞金南路458弄",
        "comprehension": 100,
        "confidence": 80,
        "district": "徐汇区",
        "location": {
            "lat": 31.206715439157403,
            "lng": 121.47338053305916
        },
        "precise": 1
    },
    {
        "address": "徐汇区日晖七村",
        "comprehension": 100,
        "confidence": 50,
        "district": "徐汇区",
        "location": {
            "lat": 31.20370398924066,
            "lng": 121.46617612286913
        },
        "precise": 0
    },
    {
        "address": "徐汇区钦州南路8弄",
        "comprehension": 100,
        "confidence": 20,
        "district": "徐汇区",
        "location": {
            "lat": 31.194556772822725,
            "lng": 121.44339635276381
        },
        "precise": 0
    },
    {
        "address": "徐汇区龙南六村",
        "comprehension": 100,
        "confidence": 70,
        "district": "徐汇区",
        "location": {
            "lat": 31.16235850345514,
            "lng": 121.45937388405592
        },
        "precise": 1
    },
    {
        "address": "徐汇区柳州路181弄",
        "comprehension": 100,
        "confidence": 70,
        "district": "徐汇区",
        "location": {
            "lat": 31.165030997347372,
            "lng": 121.43437035866064
        },
        "precise": 1
    },
    {
        "address": "徐汇区老沪闵路710弄",
        "comprehension": 100,
        "confidence": 80,
        "district": "徐汇区",
        "location": {
            "lat": 31.15015869703885,
            "lng": 121.43554839650643
        },
        "precise": 1
    },
    {
        "address": "徐汇区龙吴路988弄",
        "comprehension": 100,
        "confidence": 80,
        "district": "徐汇区",
        "location": {
            "lat": 31.155344071240474,
            "lng": 121.45732853224025
        },
        "precise": 1
    },
    {
        "address": "徐汇区罗秀路873号",
        "comprehension": 100,
        "confidence": 80,
        "district": "徐汇区",
        "location": {
            "lat": 31.137543434661115,
            "lng": 121.43975587985408
        },
        "precise": 1
    },
    {
        "address": "徐汇区华发路58弄",
        "comprehension": 100,
        "confidence": 80,
        "district": "徐汇区",
        "location": {
            "lat": 31.135493916479533,
            "lng": 121.46111740522024
        },
        "precise": 1
    },
    {
        "address": "徐汇区华发路99弄",
        "comprehension": 100,
        "confidence": 80,
        "district": "徐汇区",
        "location": {
            "lat": 31.13210484580459,
            "lng": 121.4599290368611
        },
        "precise": 1
    },
    {
        "address": "徐汇区东安三村",
        "comprehension": 100,
        "confidence": 70,
        "district": "徐汇区",
        "location": {
            "lat": 31.196987875548913,
            "lng": 121.45796345457471
        },
        "precise": 1
    },
    {
        "address": "徐汇区康健路43弄",
        "comprehension": 100,
        "confidence": 80,
        "district": "徐汇区",
        "location": {
            "lat": 31.17213299515986,
            "lng": 121.43749170081617
        },
        "precise": 1
    },
    {
        "address": "徐汇区龙吴路555弄",
        "comprehension": 100,
        "confidence": 80,
        "district": "徐汇区",
        "location": {
            "lat": 31.16322897463324,
            "lng": 121.4560330858643
        },
        "precise": 1
    },
    {
        "address": "徐汇区五原路84弄",
        "comprehension": 100,
        "confidence": 80,
        "district": "徐汇区",
        "location": {
            "lat": 31.219575248069674,
            "lng": 121.4538176848156
        },
        "precise": 1
    },
    {
        "address": "徐汇区宾南路36弄",
        "comprehension": 100,
        "confidence": 75,
        "district": "徐汇区",
        "location": {
            "lat": 31.166843877452973,
            "lng": 121.4426530049543
        },
        "precise": 1
    },
    {
        "address": "徐汇区罗城路799弄",
        "comprehension": 100,
        "confidence": 80,
        "district": "徐汇区",
        "location": {
            "lat": 31.15460834283128,
            "lng": 121.44009346306473
        },
        "precise": 1
    },
    {
        "address": "徐汇区康健路55弄",
        "comprehension": 100,
        "confidence": 75,
        "district": "徐汇区",
        "location": {
            "lat": 31.172089506821802,
            "lng": 121.4367163733305
        },
        "precise": 1
    },
    {
        "address": "徐汇区龙川北路418弄",
        "comprehension": 100,
        "confidence": 80,
        "district": "徐汇区",
        "location": {
            "lat": 31.151260292394635,
            "lng": 121.44413422090969
        },
        "precise": 1
    },
    {
        "address": "徐汇区罗秀路1175弄",
        "comprehension": 100,
        "confidence": 70,
        "district": "徐汇区",
        "location": {
            "lat": 31.13542738346913,
            "lng": 121.42882898146125
        },
        "precise": 1
    },
    {
        "address": "徐汇区桂林东街101弄",
        "comprehension": 100,
        "confidence": 80,
        "district": "徐汇区",
        "location": {
            "lat": 31.162343053059534,
            "lng": 121.4322804508917
        },
        "precise": 1
    },
    {
        "address": "徐汇区罗秀路930弄",
        "comprehension": 100,
        "confidence": 80,
        "district": "徐汇区",
        "location": {
            "lat": 31.13750557117837,
            "lng": 121.43281889521437
        },
        "precise": 1
    },
    {
        "address": "徐汇区华泾路188弄",
        "comprehension": 100,
        "confidence": 70,
        "district": "徐汇区",
        "location": {
            "lat": 31.12731069809316,
            "lng": 121.46739736920993
        },
        "precise": 1
    },
    {
        "address": "徐汇区梅陇路130号",
        "comprehension": 100,
        "confidence": 80,
        "district": "徐汇区",
        "location": {
            "lat": 31.147574169768635,
            "lng": 121.43210932369203
        },
        "precise": 1
    },
    {
        "address": "徐汇区永嘉路386弄",
        "comprehension": 100,
        "confidence": 50,
        "district": "徐汇区",
        "location": {
            "lat": 31.215346104198527,
            "lng": 121.46420793549677
        },
        "precise": 0
    },
    {
        "address": "徐汇区乐山路10弄",
        "comprehension": 100,
        "confidence": 80,
        "district": "徐汇区",
        "location": {
            "lat": 31.20294717348723,
            "lng": 121.43948980176201
        },
        "precise": 1
    },
    {
        "address": "徐汇区东泉路50弄",
        "comprehension": 100,
        "confidence": 80,
        "district": "徐汇区",
        "location": {
            "lat": 31.161693052611344,
            "lng": 121.4494277556189
        },
        "precise": 1
    },
    {
        "address": "徐汇区长桥四村",
        "comprehension": 100,
        "confidence": 70,
        "district": "徐汇区",
        "location": {
            "lat": 31.1399378439366,
            "lng": 121.44602802858583
        },
        "precise": 1
    },
    {
        "address": "徐汇区东安路230弄",
        "comprehension": 100,
        "confidence": 70,
        "district": "徐汇区",
        "location": {
            "lat": 31.19928385479955,
            "lng": 121.45903800762575
        },
        "precise": 1
    },
    {
        "address": "徐汇区桂林东街28弄",
        "comprehension": 100,
        "confidence": 70,
        "district": "徐汇区",
        "location": {
            "lat": 31.161697378752343,
            "lng": 121.4302217143239
        },
        "precise": 1
    },
    {
        "address": "徐汇区上中路51弄",
        "comprehension": 100,
        "confidence": 80,
        "district": "徐汇区",
        "location": {
            "lat": 31.141845554150105,
            "lng": 121.4403803818446
        },
        "precise": 1
    },
    {
        "address": "徐汇区老沪闵路790弄",
        "comprehension": 100,
        "confidence": 80,
        "district": "徐汇区",
        "location": {
            "lat": 31.14615883452526,
            "lng": 121.43815797401291
        },
        "precise": 1
    },
    {
        "address": "徐汇区园南二村",
        "comprehension": 100,
        "confidence": 50,
        "district": "徐汇区",
        "location": {
            "lat": 31.148531004040407,
            "lng": 121.44934187761214
        },
        "precise": 0
    },
    {
        "address": "徐汇区钦州南路300弄",
        "comprehension": 100,
        "confidence": 80,
        "district": "徐汇区",
        "location": {
            "lat": 31.16689972794132,
            "lng": 121.43044386527653
        },
        "precise": 1
    },
    {
        "address": "徐汇区浦北路959弄",
        "comprehension": 100,
        "confidence": 80,
        "district": "徐汇区",
        "location": {
            "lat": 31.157926839438225,
            "lng": 121.42047824360995
        },
        "precise": 1
    },
    {
        "address": "徐汇区",
        "comprehension": 100,
        "confidence": 20,
        "district": "徐汇区",
        "location": {
            "lat": 31.194556772822725,
            "lng": 121.44339635276381
        },
        "precise": 0
    },
    {
        "address": "长宁区宣化路3号",
        "comprehension": 100,
        "confidence": 80,
        "district": "长宁区",
        "location": {
            "lat": 31.224056880487815,
            "lng": 121.43728095834352
        },
        "precise": 1
    },
    {
        "address": "长宁区江苏路285弄",
        "comprehension": 100,
        "confidence": 70,
        "district": "长宁区",
        "location": {
            "lat": 31.227312240773507,
            "lng": 121.43720100915314
        },
        "precise": 1
    },
    {
        "address": "长宁区西诸安浜路425弄",
        "comprehension": 100,
        "confidence": 75,
        "district": "长宁区",
        "location": {
            "lat": 31.2230341916394,
            "lng": 121.43533657606717
        },
        "precise": 1
    },
    {
        "address": "长宁区宣化路57弄",
        "comprehension": 100,
        "confidence": 80,
        "district": "长宁区",
        "location": {
            "lat": 31.223474396211007,
            "lng": 121.43609187133997
        },
        "precise": 1
    },
    {
        "address": "长宁区金钟路333弄",
        "comprehension": 100,
        "confidence": 80,
        "district": "长宁区",
        "location": {
            "lat": 31.22571738468603,
            "lng": 121.37015759436585
        },
        "precise": 1
    },
    {
        "address": "长宁区绥宁路628号（公寓）",
        "comprehension": 99,
        "confidence": 80,
        "district": "长宁区",
        "location": {
            "lat": 31.222530138649866,
            "lng": 121.35100051072116
        },
        "precise": 0
    },
    {
        "address": "长宁区福泉路123弄",
        "comprehension": 100,
        "confidence": 50,
        "district": "长宁区",
        "location": {
            "lat": 31.222342536675537,
            "lng": 121.36268234506457
        },
        "precise": 0
    },
    {
        "address": "长宁区金钟路68弄",
        "comprehension": 100,
        "confidence": 80,
        "district": "长宁区",
        "location": {
            "lat": 31.225276881864072,
            "lng": 121.37695201792111
        },
        "precise": 1
    },
    {
        "address": "长宁区长宁路476弄",
        "comprehension": 100,
        "confidence": 80,
        "district": "长宁区",
        "location": {
            "lat": 31.229417495649646,
            "lng": 121.43170104383775
        },
        "precise": 1
    },
    {
        "address": "长宁区",
        "comprehension": 100,
        "confidence": 20,
        "district": "长宁区",
        "location": {
            "lat": 31.226847968225428,
            "lng": 121.43045437545099
        },
        "precise": 0
    },
    {
        "address": "普陀区北石路540弄",
        "comprehension": 100,
        "confidence": 50,
        "district": "普陀区",
        "location": {
            "lat": 31.25460763235874,
            "lng": 121.40045609175914
        },
        "precise": 0
    },
    {
        "address": "普陀区靖边路299弄",
        "comprehension": 100,
        "confidence": 80,
        "district": "普陀区",
        "location": {
            "lat": 31.268245395600843,
            "lng": 121.37364050448913
        },
        "precise": 1
    },
    {
        "address": "普陀区华联路130弄",
        "comprehension": 100,
        "confidence": 50,
        "district": "普陀区",
        "location": {
            "lat": 31.28260471003506,
            "lng": 121.3539649189041
        },
        "precise": 0
    },
    {
        "address": "普陀区雪松路458弄",
        "comprehension": 100,
        "confidence": 80,
        "district": "普陀区",
        "location": {
            "lat": 31.29371435878105,
            "lng": 121.35883418392092
        },
        "precise": 1
    },
    {
        "address": "普陀区北石路400弄",
        "comprehension": 100,
        "confidence": 80,
        "district": "普陀区",
        "location": {
            "lat": 31.253316007409712,
            "lng": 121.40234927062141
        },
        "precise": 1
    },
    {
        "address": "普陀区西乡路91弄",
        "comprehension": 100,
        "confidence": 80,
        "district": "普陀区",
        "location": {
            "lat": 31.275563712821555,
            "lng": 121.43205344908931
        },
        "precise": 1
    },
    {
        "address": "普陀区新村路424号",
        "comprehension": 100,
        "confidence": 80,
        "district": "普陀区",
        "location": {
            "lat": 31.27148610028324,
            "lng": 121.43467820795892
        },
        "precise": 1
    },
    {
        "address": "普陀区真南路843弄",
        "comprehension": 100,
        "confidence": 80,
        "district": "普陀区",
        "location": {
            "lat": 31.273345222320955,
            "lng": 121.38825674361145
        },
        "precise": 1
    },
    {
        "address": "普陀区武威路1087弄",
        "comprehension": 100,
        "confidence": 70,
        "district": "普陀区",
        "location": {
            "lat": 31.286763769783388,
            "lng": 121.36082384079496
        },
        "precise": 1
    },
    {
        "address": "普陀区真南路1051弄",
        "comprehension": 100,
        "confidence": 80,
        "district": "普陀区",
        "location": {
            "lat": 31.27528192917823,
            "lng": 121.38529269475072
        },
        "precise": 1
    },
    {
        "address": "普陀区祁连山南路2727弄",
        "comprehension": 100,
        "confidence": 80,
        "district": "普陀区",
        "location": {
            "lat": 31.265658569292437,
            "lng": 121.37501607971656
        },
        "precise": 1
    },
    {
        "address": "普陀区志丹路500弄",
        "comprehension": 100,
        "confidence": 80,
        "district": "普陀区",
        "location": {
            "lat": 31.277285259706296,
            "lng": 121.43939494070015
        },
        "precise": 1
    },
    {
        "address": "普陀区西乡路105弄",
        "comprehension": 100,
        "confidence": 70,
        "district": "普陀区",
        "location": {
            "lat": 31.27608607510337,
            "lng": 121.4333319174911
        },
        "precise": 1
    },
    {
        "address": "普陀区江宁路1415弄",
        "comprehension": 100,
        "confidence": 80,
        "district": "普陀区",
        "location": {
            "lat": 31.25304395817305,
            "lng": 121.44553521818307
        },
        "precise": 1
    },
    {
        "address": "普陀区枣阳路182号",
        "comprehension": 100,
        "confidence": 80,
        "district": "普陀区",
        "location": {
            "lat": 31.241822723148044,
            "lng": 121.41063694742593
        },
        "precise": 1
    },
    {
        "address": "普陀区曹杨七村",
        "comprehension": 100,
        "confidence": 70,
        "district": "普陀区",
        "location": {
            "lat": 31.246969606437972,
            "lng": 121.416892028353
        },
        "precise": 1
    },
    {
        "address": "普陀区雪松路392弄",
        "comprehension": 100,
        "confidence": 80,
        "district": "普陀区",
        "location": {
            "lat": 31.289754724987986,
            "lng": 121.36070688141757
        },
        "precise": 1
    },
    {
        "address": "普陀区宜川三村",
        "comprehension": 100,
        "confidence": 50,
        "district": "普陀区",
        "location": {
            "lat": 31.263551892325964,
            "lng": 121.44741950382078
        },
        "precise": 0
    },
    {
        "address": "普陀区长寿路505弄",
        "comprehension": 100,
        "confidence": 80,
        "district": "普陀区",
        "location": {
            "lat": 31.24359953865196,
            "lng": 121.44171562315462
        },
        "precise": 1
    },
    {
        "address": "普陀区东新路137弄",
        "comprehension": 100,
        "confidence": 80,
        "district": "普陀区",
        "location": {
            "lat": 31.246654470922632,
            "lng": 121.43262369342705
        },
        "precise": 1
    },
    {
        "address": "普陀区中山北路2451弄200支弄",
        "comprehension": 100,
        "confidence": 70,
        "district": "普陀区",
        "location": {
            "lat": 31.246376690781684,
            "lng": 121.42868282715477
        },
        "precise": 1
    },
    {
        "address": "普陀区昌化路994弄",
        "comprehension": 100,
        "confidence": 80,
        "district": "普陀区",
        "location": {
            "lat": 31.251958531720884,
            "lng": 121.4521196179101
        },
        "precise": 1
    },
    {
        "address": "普陀区大渡河路1332弄",
        "comprehension": 100,
        "confidence": 80,
        "district": "普陀区",
        "location": {
            "lat": 31.24361883489916,
            "lng": 121.40167383470848
        },
        "precise": 1
    },
    {
        "address": "普陀区",
        "comprehension": 100,
        "confidence": 20,
        "district": "普陀区",
        "location": {
            "lat": 31.254973368279597,
            "lng": 121.40356934916508
        },
        "precise": 0
    },
    {
        "address": "虹口区凉城路126弄",
        "comprehension": 100,
        "confidence": 70,
        "district": "虹口区",
        "location": {
            "lat": 31.28739174948657,
            "lng": 121.47634686072332
        },
        "precise": 1
    },
    {
        "address": "虹口区四达路220弄",
        "comprehension": 100,
        "confidence": 80,
        "district": "虹口区",
        "location": {
            "lat": 31.273683878859227,
            "lng": 121.49326901705007
        },
        "precise": 1
    },
    {
        "address": "虹口区欧阳路289弄",
        "comprehension": 100,
        "confidence": 80,
        "district": "虹口区",
        "location": {
            "lat": 31.274007642312377,
            "lng": 121.49508359418022
        },
        "precise": 1
    },
    {
        "address": "虹口区天宝路882弄",
        "comprehension": 100,
        "confidence": 70,
        "district": "虹口区",
        "location": {
            "lat": 31.264461164624308,
            "lng": 121.50761280011119
        },
        "precise": 1
    },
    {
        "address": "虹口区车站北路491弄",
        "comprehension": 100,
        "confidence": 80,
        "district": "虹口区",
        "location": {
            "lat": 31.30299743561254,
            "lng": 121.48044920928662
        },
        "precise": 1
    },
    {
        "address": "虹口区四川北路1545弄",
        "comprehension": 100,
        "confidence": 80,
        "district": "虹口区",
        "location": {
            "lat": 31.26148799735084,
            "lng": 121.48867687928306
        },
        "precise": 1
    },
    {
        "address": "虹口区广中五村",
        "comprehension": 100,
        "confidence": 70,
        "district": "虹口区",
        "location": {
            "lat": 31.283628136130805,
            "lng": 121.48291532740316
        },
        "precise": 1
    },
    {
        "address": "虹口区凉城路465弄",
        "comprehension": 100,
        "confidence": 75,
        "district": "虹口区",
        "location": {
            "lat": 31.29383447129653,
            "lng": 121.47645157010611
        },
        "precise": 1
    },
    {
        "address": "虹口区西江湾路168弄",
        "comprehension": 100,
        "confidence": 80,
        "district": "虹口区",
        "location": {
            "lat": 31.27391582199996,
            "lng": 121.485115097936
        },
        "precise": 1
    },
    {
        "address": "虹口区花园路118弄",
        "comprehension": 100,
        "confidence": 80,
        "district": "虹口区",
        "location": {
            "lat": 31.276928870008113,
            "lng": 121.48014396507433
        },
        "precise": 1
    },
    {
        "address": "虹口区四川北路1774弄",
        "comprehension": 100,
        "confidence": 70,
        "district": "虹口区",
        "location": {
            "lat": 31.265406773735187,
            "lng": 121.4900271222951
        },
        "precise": 1
    },
    {
        "address": "虹口区广灵四路280弄",
        "comprehension": 100,
        "confidence": 80,
        "district": "虹口区",
        "location": {
            "lat": 31.293333422882892,
            "lng": 121.48059293816821
        },
        "precise": 1
    },
    {
        "address": "虹口区洛阳新村",
        "comprehension": 100,
        "confidence": 70,
        "district": "虹口区",
        "location": {
            "lat": 31.290006532056285,
            "lng": 121.48691503268634
        },
        "precise": 1
    },
    {
        "address": "虹口区新市南路590弄",
        "comprehension": 100,
        "confidence": 80,
        "district": "虹口区",
        "location": {
            "lat": 31.299777186326335,
            "lng": 121.48755426688724
        },
        "precise": 1
    },
    {
        "address": "虹口区",
        "comprehension": 100,
        "confidence": 20,
        "district": "虹口区",
        "location": {
            "lat": 31.269746698931357,
            "lng": 121.51158645453457
        },
        "precise": 0
    },
    {
        "address": "杨浦区控江东三村",
        "comprehension": 100,
        "confidence": 70,
        "district": "杨浦区",
        "location": {
            "lat": 31.29250813358122,
            "lng": 121.54042772072958
        },
        "precise": 1
    },
    {
        "address": "杨浦区延吉六村",
        "comprehension": 100,
        "confidence": 70,
        "district": "杨浦区",
        "location": {
            "lat": 31.296134013725446,
            "lng": 121.54291746428103
        },
        "precise": 1
    },
    {
        "address": "杨浦区顺平路59弄",
        "comprehension": 100,
        "confidence": 80,
        "district": "杨浦区",
        "location": {
            "lat": 31.28945277162139,
            "lng": 121.56210535980472
        },
        "precise": 1
    },
    {
        "address": "杨浦区国和二村",
        "comprehension": 100,
        "confidence": 70,
        "district": "杨浦区",
        "location": {
            "lat": 31.325752844726257,
            "lng": 121.5354061929288
        },
        "precise": 1
    },
    {
        "address": "杨浦区双辽支路70弄",
        "comprehension": 100,
        "confidence": 80,
        "district": "杨浦区",
        "location": {
            "lat": 31.27646330064205,
            "lng": 121.52344812964108
        },
        "precise": 1
    },
    {
        "address": "杨浦区许昌路630弄",
        "comprehension": 100,
        "confidence": 80,
        "district": "杨浦区",
        "location": {
            "lat": 31.2648827312196,
            "lng": 121.53027120914211
        },
        "precise": 1
    },
    {
        "address": "杨浦区开鲁路382弄",
        "comprehension": 100,
        "confidence": 80,
        "district": "杨浦区",
        "location": {
            "lat": 31.33088145428655,
            "lng": 121.53982450857963
        },
        "precise": 1
    },
    {
        "address": "杨浦区国和路600弄",
        "comprehension": 100,
        "confidence": 70,
        "district": "杨浦区",
        "location": {
            "lat": 31.319840936583205,
            "lng": 121.52434975888144
        },
        "precise": 1
    },
    {
        "address": "杨浦区怀德路366弄",
        "comprehension": 100,
        "confidence": 70,
        "district": "杨浦区",
        "location": {
            "lat": 31.263132866299305,
            "lng": 121.53208758288329
        },
        "precise": 1
    },
    {
        "address": "杨浦区控江路888弄",
        "comprehension": 100,
        "confidence": 80,
        "district": "杨浦区",
        "location": {
            "lat": 31.289846452580182,
            "lng": 121.54022425453157
        },
        "precise": 1
    },
    {
        "address": "杨浦区双阳路291弄",
        "comprehension": 100,
        "confidence": 80,
        "district": "杨浦区",
        "location": {
            "lat": 31.2831659948652,
            "lng": 121.54280230151466
        },
        "precise": 1
    },
    {
        "address": "杨浦区",
        "comprehension": 100,
        "confidence": 20,
        "district": "杨浦区",
        "location": {
            "lat": 31.265524144657057,
            "lng": 121.53251993732523
        },
        "precise": 0
    },
    {
        "address": "宝山区新沪路198弄",
        "comprehension": 100,
        "confidence": 50,
        "district": "宝山区",
        "location": {
            "lat": 31.275401139503494,
            "lng": 121.4263408548597
        },
        "precise": 0
    },
    {
        "address": "宝山区铁峰路2000弄",
        "comprehension": 100,
        "confidence": 80,
        "district": "宝山区",
        "location": {
            "lat": 31.402959094162384,
            "lng": 121.46028305906258
        },
        "precise": 1
    },
    {
        "address": "宝山区潘广路1765弄",
        "comprehension": 100,
        "confidence": 80,
        "district": "宝山区",
        "location": {
            "lat": 31.368352853097058,
            "lng": 121.36621097893831
        },
        "precise": 1
    },
    {
        "address": "宝山区纬地路375弄",
        "comprehension": 100,
        "confidence": 75,
        "district": "宝山区",
        "location": {
            "lat": 31.331120195423008,
            "lng": 121.40466896493984
        },
        "precise": 1
    },
    {
        "address": "宝山区涵青路398弄",
        "comprehension": 100,
        "confidence": 80,
        "district": "宝山区",
        "location": {
            "lat": 31.335129428306214,
            "lng": 121.4037305950041
        },
        "precise": 1
    },
    {
        "address": "宝山区韶山路245弄",
        "comprehension": 100,
        "confidence": 80,
        "district": "宝山区",
        "location": {
            "lat": 31.364788520165966,
            "lng": 121.37145331023345
        },
        "precise": 1
    },
    {
        "address": "宝山区涵青路100弄",
        "comprehension": 100,
        "confidence": 70,
        "district": "宝山区",
        "location": {
            "lat": 31.310018083887417,
            "lng": 121.41883398520447
        },
        "precise": 1
    },
    {
        "address": "宝山区南周村",
        "comprehension": 100,
        "confidence": 50,
        "district": "宝山区",
        "location": {
            "lat": 31.387561902025073,
            "lng": 121.3415816876185
        },
        "precise": 0
    },
    {
        "address": "宝山区苏家浜路435弄",
        "comprehension": 100,
        "confidence": 70,
        "district": "宝山区",
        "location": {
            "lat": 31.365937924531664,
            "lng": 121.39753597003785
        },
        "precise": 1
    },
    {
        "address": "宝山区朱家弄村",
        "comprehension": 100,
        "confidence": 50,
        "district": "宝山区",
        "location": {
            "lat": 31.347668338968923,
            "lng": 121.3959866625248
        },
        "precise": 0
    },
    {
        "address": "宝山区松兰路233弄",
        "comprehension": 100,
        "confidence": 70,
        "district": "宝山区",
        "location": {
            "lat": 31.375887067529685,
            "lng": 121.45543625168348
        },
        "precise": 1
    },
    {
        "address": "宝山区城银路555号",
        "comprehension": 100,
        "confidence": 80,
        "district": "宝山区",
        "location": {
            "lat": 31.32041248599163,
            "lng": 121.35654673877032
        },
        "precise": 1
    },
    {
        "address": "宝山区年吉路220弄",
        "comprehension": 99,
        "confidence": 80,
        "district": "宝山区",
        "location": {
            "lat": 31.408316157230438,
            "lng": 121.3530305968295
        },
        "precise": 0
    },
    {
        "address": "宝山区祁连三村",
        "comprehension": 100,
        "confidence": 70,
        "district": "宝山区",
        "location": {
            "lat": 31.317305901901875,
            "lng": 121.38941564754987
        },
        "precise": 1
    },
    {
        "address": "宝山区锦秋路1601弄",
        "comprehension": 100,
        "confidence": 80,
        "district": "宝山区",
        "location": {
            "lat": 31.323400588896995,
            "lng": 121.37859052717133
        },
        "precise": 1
    },
    {
        "address": "宝山区沙浦路518弄",
        "comprehension": 100,
        "confidence": 70,
        "district": "宝山区",
        "location": {
            "lat": 31.36371888532565,
            "lng": 121.38810268421648
        },
        "precise": 1
    },
    {
        "address": "宝山区共和新路4719弄",
        "comprehension": 100,
        "confidence": 80,
        "district": "宝山区",
        "location": {
            "lat": 31.325372733705944,
            "lng": 121.45397533743261
        },
        "precise": 1
    },
    {
        "address": "宝山区淞南三村",
        "comprehension": 100,
        "confidence": 70,
        "district": "宝山区",
        "location": {
            "lat": 31.350175563924726,
            "lng": 121.49608592346826
        },
        "precise": 1
    },
    {
        "address": "宝山区沪太路5018号",
        "comprehension": 99,
        "confidence": 80,
        "district": "宝山区",
        "location": {
            "lat": 31.34851125826064,
            "lng": 121.40472780395073
        },
        "precise": 0
    },
    {
        "address": "宝山区教育路555弄",
        "comprehension": 100,
        "confidence": 75,
        "district": "宝山区",
        "location": {
            "lat": 31.362871555602567,
            "lng": 121.40177803814763
        },
        "precise": 1
    },
    {
        "address": "宝山区顾北路666号",
        "comprehension": 100,
        "confidence": 80,
        "district": "宝山区",
        "location": {
            "lat": 31.356416503083704,
            "lng": 121.39386935643778
        },
        "precise": 1
    },
    {
        "address": "宝山区美丹路998弄",
        "comprehension": 100,
        "confidence": 70,
        "district": "宝山区",
        "location": {
            "lat": 31.40097348979314,
            "lng": 121.34548347760108
        },
        "precise": 1
    },
    {
        "address": "宝山区洛场路114号",
        "comprehension": 100,
        "confidence": 80,
        "district": "宝山区",
        "location": {
            "lat": 31.308506706819504,
            "lng": 121.41678611813337
        },
        "precise": 1
    },
    {
        "address": "宝山区菊盛路851弄",
        "comprehension": 100,
        "confidence": 50,
        "district": "宝山区",
        "location": {
            "lat": 31.365551502395796,
            "lng": 121.37555506302256
        },
        "precise": 0
    },
    {
        "address": "宝山区大华路455弄",
        "comprehension": 100,
        "confidence": 70,
        "district": "宝山区",
        "location": {
            "lat": 31.276912898409368,
            "lng": 121.42163795602332
        },
        "precise": 1
    },
    {
        "address": "宝山区菊泉街1346弄",
        "comprehension": 100,
        "confidence": 80,
        "district": "宝山区",
        "location": {
            "lat": 31.36833782213538,
            "lng": 121.37814227272183
        },
        "precise": 1
    },
    {
        "address": "宝山区水产西路999弄",
        "comprehension": 100,
        "confidence": 80,
        "district": "宝山区",
        "location": {
            "lat": 31.360786576709025,
            "lng": 121.41719008612121
        },
        "precise": 1
    },
    {
        "address": "宝山区环镇北路417弄",
        "comprehension": 100,
        "confidence": 70,
        "district": "宝山区",
        "location": {
            "lat": 31.313894177839096,
            "lng": 121.41299652650898
        },
        "precise": 1
    },
    {
        "address": "宝山区富联二路55弄",
        "comprehension": 100,
        "confidence": 50,
        "district": "宝山区",
        "location": {
            "lat": 31.378632768451084,
            "lng": 121.41626644839585
        },
        "precise": 0
    },
    {
        "address": "宝山区淞南五村",
        "comprehension": 100,
        "confidence": 70,
        "district": "宝山区",
        "location": {
            "lat": 31.34488479304042,
            "lng": 121.49163742475228
        },
        "precise": 1
    },
    {
        "address": "宝山区南蕰藻路408号",
        "comprehension": 100,
        "confidence": 80,
        "district": "宝山区",
        "location": {
            "lat": 31.346055877024398,
            "lng": 121.43674502927628
        },
        "precise": 1
    },
    {
        "address": "宝山区通河一村",
        "comprehension": 100,
        "confidence": 70,
        "district": "宝山区",
        "location": {
            "lat": 31.341825055584014,
            "lng": 121.45505887353875
        },
        "precise": 1
    },
    {
        "address": "宝山区段泾村",
        "comprehension": 100,
        "confidence": 50,
        "district": "宝山区",
        "location": {
            "lat": 31.427179142231374,
            "lng": 121.40310600318303
        },
        "precise": 0
    },
    {
        "address": "宝山区泗塘四村",
        "comprehension": 100,
        "confidence": 50,
        "district": "宝山区",
        "location": {
            "lat": 31.34108948230612,
            "lng": 121.46681391978122
        },
        "precise": 0
    },
    {
        "address": "宝山区丰翔路1888弄",
        "comprehension": 99,
        "confidence": 80,
        "district": "宝山区",
        "location": {
            "lat": 31.3125033377043,
            "lng": 121.34863895536598
        },
        "precise": 0
    },
    {
        "address": "宝山区陈家行村",
        "comprehension": 100,
        "confidence": 50,
        "district": "宝山区",
        "location": {
            "lat": 31.33336993045677,
            "lng": 121.35713045769072
        },
        "precise": 0
    },
    {
        "address": "宝山区蕰川路1498弄",
        "comprehension": 100,
        "confidence": 80,
        "district": "宝山区",
        "location": {
            "lat": 31.367418616403288,
            "lng": 121.4353475353944
        },
        "precise": 1
    },
    {
        "address": "宝山区友谊支路300弄",
        "comprehension": 100,
        "confidence": 70,
        "district": "宝山区",
        "location": {
            "lat": 31.40444975284986,
            "lng": 121.47517579662085
        },
        "precise": 1
    },
    {
        "address": "宝山区大华路988弄",
        "comprehension": 100,
        "confidence": 80,
        "district": "宝山区",
        "location": {
            "lat": 31.28350592737752,
            "lng": 121.4215012339247
        },
        "precise": 1
    },
    {
        "address": "宝山区大康路891弄",
        "comprehension": 100,
        "confidence": 75,
        "district": "宝山区",
        "location": {
            "lat": 31.335413730060534,
            "lng": 121.42973869545119
        },
        "precise": 1
    },
    {
        "address": "宝山区富联路128弄",
        "comprehension": 100,
        "confidence": 80,
        "district": "宝山区",
        "location": {
            "lat": 31.35961683430447,
            "lng": 121.4170625267388
        },
        "precise": 1
    },
    {
        "address": "宝山区顾北东路500弄",
        "comprehension": 100,
        "confidence": 80,
        "district": "宝山区",
        "location": {
            "lat": 31.362742127466685,
            "lng": 121.41411940839646
        },
        "precise": 1
    },
    {
        "address": "宝山区新沪路960弄",
        "comprehension": 100,
        "confidence": 80,
        "district": "宝山区",
        "location": {
            "lat": 31.27911039498447,
            "lng": 121.42593212585267
        },
        "precise": 1
    },
    {
        "address": "宝山区城银路655弄",
        "comprehension": 100,
        "confidence": 80,
        "district": "宝山区",
        "location": {
            "lat": 31.322042743754995,
            "lng": 121.35609776567642
        },
        "precise": 1
    },
    {
        "address": "宝山区",
        "comprehension": 100,
        "confidence": 20,
        "district": "宝山区",
        "location": {
            "lat": 31.41027947347614,
            "lng": 121.4965630135246
        },
        "precise": 0
    },
    {
        "address": "闵行区安宁路289弄",
        "comprehension": 100,
        "confidence": 50,
        "district": "闵行区",
        "location": {
            "lat": 31.02003927663482,
            "lng": 121.42315627199629
        },
        "precise": 0
    },
    {
        "address": "闵行区宝铭路88弄",
        "comprehension": 100,
        "confidence": 80,
        "district": "闵行区",
        "location": {
            "lat": 31.145016382728766,
            "lng": 121.37371272825214
        },
        "precise": 1
    },
    {
        "address": "闵行区报春路816弄",
        "comprehension": 100,
        "confidence": 80,
        "district": "闵行区",
        "location": {
            "lat": 31.127769513183583,
            "lng": 121.38180628123594
        },
        "precise": 1
    },
    {
        "address": "闵行区北沈路260弄",
        "comprehension": 100,
        "confidence": 70,
        "district": "闵行区",
        "location": {
            "lat": 31.233986502342006,
            "lng": 121.34049985829283
        },
        "precise": 1
    },
    {
        "address": "闵行区碧江路501弄",
        "comprehension": 100,
        "confidence": 80,
        "district": "闵行区",
        "location": {
            "lat": 31.02193982513389,
            "lng": 121.40600672150529
        },
        "precise": 1
    },
    {
        "address": "闵行区宾川路380弄",
        "comprehension": 100,
        "confidence": 80,
        "district": "闵行区",
        "location": {
            "lat": 31.01128782641506,
            "lng": 121.4164236518601
        },
        "precise": 1
    },
    {
        "address": "闵行区澄江路1290号",
        "comprehension": 100,
        "confidence": 80,
        "district": "闵行区",
        "location": {
            "lat": 31.08788364918102,
            "lng": 121.44737234278152
        },
        "precise": 1
    },
    {
        "address": "闵行区春申路1581弄",
        "comprehension": 100,
        "confidence": 80,
        "district": "闵行区",
        "location": {
            "lat": 31.12054683751967,
            "lng": 121.43849744366513
        },
        "precise": 1
    },
    {
        "address": "闵行区春申路1717弄",
        "comprehension": 100,
        "confidence": 80,
        "district": "闵行区",
        "location": {
            "lat": 31.120278653396348,
            "lng": 121.43669948518692
        },
        "precise": 1
    },
    {
        "address": "闵行区春申路2458弄",
        "comprehension": 100,
        "confidence": 50,
        "district": "闵行区",
        "location": {
            "lat": 31.11817705263805,
            "lng": 121.42197050872312
        },
        "precise": 0
    },
    {
        "address": "闵行区灯辉路1169弄",
        "comprehension": 100,
        "confidence": 80,
        "district": "闵行区",
        "location": {
            "lat": 31.040730795775076,
            "lng": 121.4338888669073
        },
        "precise": 1
    },
    {
        "address": "闵行区东川路800号",
        "comprehension": 100,
        "confidence": 80,
        "district": "闵行区",
        "location": {
            "lat": 31.032028841151515,
            "lng": 121.44328397474452
        },
        "precise": 1
    },
    {
        "address": "闵行区东风村",
        "comprehension": 100,
        "confidence": 50,
        "district": "闵行区",
        "location": {
            "lat": 31.10886798524048,
            "lng": 121.55106347830662
        },
        "precise": 0
    },
    {
        "address": "闵行区都市路3635弄",
        "comprehension": 100,
        "confidence": 80,
        "district": "闵行区",
        "location": {
            "lat": 31.088588124715173,
            "lng": 121.40771440027976
        },
        "precise": 1
    },
    {
        "address": "闵行区放鹤路2号",
        "comprehension": 100,
        "confidence": 80,
        "district": "闵行区",
        "location": {
            "lat": 31.056803160646666,
            "lng": 121.48357351585031
        },
        "precise": 1
    },
    {
        "address": "闵行区凤庆路150弄",
        "comprehension": 100,
        "confidence": 70,
        "district": "闵行区",
        "location": {
            "lat": 31.028243120697727,
            "lng": 121.42102198793513
        },
        "precise": 1
    },
    {
        "address": "闵行区顾戴路3100弄",
        "comprehension": 100,
        "confidence": 75,
        "district": "闵行区",
        "location": {
            "lat": 31.133289183693748,
            "lng": 121.35744648156911
        },
        "precise": 1
    },
    {
        "address": "闵行区航北路180弄",
        "comprehension": 100,
        "confidence": 80,
        "district": "闵行区",
        "location": {
            "lat": 31.180350384197016,
            "lng": 121.36448793913962
        },
        "precise": 1
    },
    {
        "address": "闵行区鹤庆路136弄",
        "comprehension": 100,
        "confidence": 80,
        "district": "闵行区",
        "location": {
            "lat": 31.016172994863986,
            "lng": 121.42679782287264
        },
        "precise": 1
    },
    {
        "address": "闵行区虹梅南路1661弄",
        "comprehension": 100,
        "confidence": 80,
        "district": "闵行区",
        "location": {
            "lat": 31.12146522709228,
            "lng": 121.4331552207973
        },
        "precise": 1
    },
    {
        "address": "闵行区虹梅南路1770弄",
        "comprehension": 100,
        "confidence": 80,
        "district": "闵行区",
        "location": {
            "lat": 31.118649515009096,
            "lng": 121.438129946881
        },
        "precise": 1
    },
    {
        "address": "闵行区虹梅南路1781弄",
        "comprehension": 99,
        "confidence": 80,
        "district": "闵行区",
        "location": {
            "lat": 31.113478423057806,
            "lng": 121.43407742123384
        },
        "precise": 0
    },
    {
        "address": "闵行区虹梅南路2555弄",
        "comprehension": 100,
        "confidence": 75,
        "district": "闵行区",
        "location": {
            "lat": 31.103561775366988,
            "lng": 121.43927438810071
        },
        "precise": 1
    },
    {
        "address": "闵行区虹莘路1876弄",
        "comprehension": 100,
        "confidence": 80,
        "district": "闵行区",
        "location": {
            "lat": 31.141528596759898,
            "lng": 121.3900080800337
        },
        "precise": 1
    },
    {
        "address": "闵行区沪光路180弄",
        "comprehension": 100,
        "confidence": 80,
        "district": "闵行区",
        "location": {
            "lat": 31.08583034195768,
            "lng": 121.4216000475308
        },
        "precise": 1
    },
    {
        "address": "闵行区沪光路39弄",
        "comprehension": 100,
        "confidence": 80,
        "district": "闵行区",
        "location": {
            "lat": 31.08452255101005,
            "lng": 121.42910089853912
        },
        "precise": 1
    },
    {
        "address": "闵行区沪光路425弄",
        "comprehension": 100,
        "confidence": 80,
        "district": "闵行区",
        "location": {
            "lat": 31.08686987689891,
            "lng": 121.42731340134026
        },
        "precise": 1
    },
    {
        "address": "闵行区华展路168弄",
        "comprehension": 100,
        "confidence": 80,
        "district": "闵行区",
        "location": {
            "lat": 31.118136553544623,
            "lng": 121.4568294336989
        },
        "precise": 1
    },
    {
        "address": "闵行区纪翟南路165号",
        "comprehension": 100,
        "confidence": 80,
        "district": "闵行区",
        "location": {
            "lat": 31.210196863442828,
            "lng": 121.3067639948656
        },
        "precise": 1
    },
    {
        "address": "闵行区剑川路150弄",
        "comprehension": 100,
        "confidence": 80,
        "district": "闵行区",
        "location": {
            "lat": 31.04974024307159,
            "lng": 121.47059255207839
        },
        "precise": 1
    },
    {
        "address": "闵行区剑川路198弄",
        "comprehension": 100,
        "confidence": 70,
        "district": "闵行区",
        "location": {
            "lat": 31.046397670646627,
            "lng": 121.46883496989064
        },
        "precise": 1
    },
    {
        "address": "闵行区江川路241弄",
        "comprehension": 100,
        "confidence": 80,
        "district": "闵行区",
        "location": {
            "lat": 31.007747726019506,
            "lng": 121.42902903409832
        },
        "precise": 1
    },
    {
        "address": "闵行区金汇南路301弄",
        "comprehension": 100,
        "confidence": 75,
        "district": "闵行区",
        "location": {
            "lat": 31.175478678704767,
            "lng": 121.38414241454518
        },
        "precise": 1
    },
    {
        "address": "闵行区金平路558弄",
        "comprehension": 100,
        "confidence": 80,
        "district": "闵行区",
        "location": {
            "lat": 31.02102696316147,
            "lng": 121.41403901005332
        },
        "precise": 1
    },
    {
        "address": "闵行区金平路777弄",
        "comprehension": 100,
        "confidence": 50,
        "district": "闵行区",
        "location": {
            "lat": 31.02712739650283,
            "lng": 121.41431128645338
        },
        "precise": 0
    },
    {
        "address": "闵行区金平路788弄",
        "comprehension": 100,
        "confidence": 50,
        "district": "闵行区",
        "location": {
            "lat": 31.026779184495073,
            "lng": 121.41367034547201
        },
        "precise": 0
    },
    {
        "address": "闵行区景谷中路58弄",
        "comprehension": 100,
        "confidence": 75,
        "district": "闵行区",
        "location": {
            "lat": 31.025337816029474,
            "lng": 121.42133325079433
        },
        "precise": 1
    },
    {
        "address": "闵行区景联路388号",
        "comprehension": 100,
        "confidence": 80,
        "district": "闵行区",
        "location": {
            "lat": 31.107007375189934,
            "lng": 121.45214297385336
        },
        "precise": 1
    },
    {
        "address": "闵行区景联路759号",
        "comprehension": 100,
        "confidence": 80,
        "district": "闵行区",
        "location": {
            "lat": 31.10563834895106,
            "lng": 121.44610312692647
        },
        "precise": 1
    },
    {
        "address": "闵行区莲花南路155弄",
        "comprehension": 100,
        "confidence": 75,
        "district": "闵行区",
        "location": {
            "lat": 31.137370962509983,
            "lng": 121.41250892627818
        },
        "precise": 1
    },
    {
        "address": "闵行区联航路2015弄",
        "comprehension": 100,
        "confidence": 80,
        "district": "闵行区",
        "location": {
            "lat": 31.077547152816013,
            "lng": 121.51187067839793
        },
        "precise": 1
    },
    {
        "address": "闵行区龙吴路5511弄",
        "comprehension": 100,
        "confidence": 80,
        "district": "闵行区",
        "location": {
            "lat": 31.050396277321234,
            "lng": 121.47244099532627
        },
        "precise": 1
    },
    {
        "address": "闵行区龙吴路5688弄",
        "comprehension": 100,
        "confidence": 80,
        "district": "闵行区",
        "location": {
            "lat": 31.045216870124477,
            "lng": 121.47557922562537
        },
        "precise": 1
    },
    {
        "address": "闵行区罗锦路258弄",
        "comprehension": 100,
        "confidence": 80,
        "district": "闵行区",
        "location": {
            "lat": 31.127357375695066,
            "lng": 121.41825951883085
        },
        "precise": 1
    },
    {
        "address": "闵行区罗秀路1955弄",
        "comprehension": 100,
        "confidence": 70,
        "district": "闵行区",
        "location": {
            "lat": 31.133168865042535,
            "lng": 121.41051899991247
        },
        "precise": 1
    },
    {
        "address": "闵行区罗秀路1980弄",
        "comprehension": 100,
        "confidence": 50,
        "district": "闵行区",
        "location": {
            "lat": 31.13403172486834,
            "lng": 121.4099636674462
        },
        "precise": 0
    },
    {
        "address": "闵行区梅陇二村",
        "comprehension": 100,
        "confidence": 70,
        "district": "闵行区",
        "location": {
            "lat": 31.14070474980123,
            "lng": 121.41705551995581
        },
        "precise": 1
    },
    {
        "address": "闵行区平阳路1375弄",
        "comprehension": 100,
        "confidence": 80,
        "district": "闵行区",
        "location": {
            "lat": 31.140166950475688,
            "lng": 121.39194303010218
        },
        "precise": 1
    },