[
    {
        "address": "浦东新区永泰路630弄",
        "comprehension": 100,
        "confidence": 80,
        "district": "浦东新区",
        "location": {
            "lat": 31.145365857319558,
            "lng": 121.52411305537956
        },
        "precise": 1
    },
    {
        "address": "浦东新区华夏东路1668弄",
        "comprehension": 100,
        "confidence": 70,
        "district": "浦东新区",
        "location": {
            "lat": 31.2033819900195,
            "lng": 121.6877889904862
        },
        "precise": 1
    },
    {
        "address": "浦东新区鹤驰路99弄",
        "comprehension": 100,
        "confidence": 80,
        "district": "浦东新区",
        "location": {
            "lat": 31.084967271555595,
            "lng": 121.59974166575626
        },
        "precise": 1
    },
    {
        "address": "浦东新区莱阳路451弄",
        "comprehension": 100,
        "confidence": 70,
        "district": "浦东新区",
        "location": {
            "lat": 31.282158997327386,
            "lng": 121.5892918574198
        },
        "precise": 1
    },
    {
        "address": "浦东新区北艾路1765弄",
        "comprehension": 100,
        "confidence": 80,
        "district": "浦东新区",
        "location": {
            "lat": 31.184265453706548,
            "lng": 121.52839860147601
        },
        "precise": 1
    },
    {
        "address": "浦东新区孙耀路128弄",
        "comprehension": 100,
        "confidence": 50,
        "district": "浦东新区",
        "location": {
            "lat": 31.190213049707157,
            "lng": 121.64091451067004
        },
        "precise": 0
    },
    {
        "address": "浦东新区东波路58弄",
        "comprehension": 100,
        "confidence": 80,
        "district": "浦东新区",
        "location": {
            "lat": 31.289892586356153,
            "lng": 121.58377868701339
        },
        "precise": 1
    },
    {
        "address": "浦东新区长元村沈家宅",
        "comprehension": 100,
        "confidence": 50,
        "district": "浦东新区",
        "location": {
            "lat": 31.174413748703195,
            "lng": 121.63612267958817
        },
        "precise": 0
    },
    {
        "address": "浦东新区华夏东路860弄",
        "comprehension": 100,
        "confidence": 70,
        "district": "浦东新区",
        "location": {
            "lat": 31.20033012373384,
            "lng": 121.67234154927552
        },
        "precise": 1
    },
    {
        "address": "浦东新区南门大街70弄",
        "comprehension": 100,
        "confidence": 80,
        "district": "浦东新区",
        "location": {
            "lat": 31.049802582763984,
            "lng": 121.76342757205406
        },
        "precise": 1
    },
    {
        "address": "浦东新区下南路500弄",
        "comprehension": 100,
        "confidence": 70,
        "district": "浦东新区",
        "location": {
            "lat": 31.177967587760506,
            "lng": 121.5437208188986
        },
        "precise": 1
    },
    {
        "address": "浦东新区果园银杏村",
        "comprehension": 100,
        "confidence": 20,
        "district": "浦东新区",
        "location": {
            "lat": 31.227348292436346,
            "lng": 121.55045460683195
        },
        "precise": 0
    },
    {
        "address": "浦东新区微山新村",
        "comprehension": 100,
        "confidence": 70,
        "district": "浦东新区",
        "location": {
            "lat": 31.215230523292508,
            "lng": 121.52188759330915
        },
        "precise": 1
    },
    {
        "address": "浦东新区栖山路1700弄",
        "comprehension": 100,
        "confidence": 80,
        "district": "浦东新区",
        "location": {
            "lat": 31.26538331496652,
            "lng": 121.57584134935779
        },
        "precise": 1
    },
    {
        "address": "浦东新区三三公路5020弄",
        "comprehension": 100,
        "confidence": 50,
        "district": "浦东新区",
        "location": {
            "lat": 30.959156355151052,
            "lng": 121.9130469520852
        },
        "precise": 0
    },
    {
        "address": "浦东新区拱为路2600弄",
        "comprehension": 100,
        "confidence": 70,
        "district": "浦东新区",
        "location": {
            "lat": 31.063557763042446,
            "lng": 121.74541825335946
        },
        "precise": 1
    },
    {
        "address": "浦东新区博山东路440弄",
        "comprehension": 100,
        "confidence": 80,
        "district": "浦东新区",
        "location": {
            "lat": 31.25858318762898,
            "lng": 121.57526571518699
        },
        "precise": 1
    },
    {
        "address": "浦东新区下南路339弄",
        "comprehension": 100,
        "confidence": 80,
        "district": "浦东新区",
        "location": {
            "lat": 31.17679107417024,
            "lng": 121.55064127471694
        },
        "precise": 1
    },
    {
        "address": "浦东新区博山东路811弄",
        "comprehension": 100,
        "confidence": 80,
        "district": "浦东新区",
        "location": {
            "lat": 31.265442810713736,
            "lng": 121.57981814785047
        },
        "precise": 1
    },
    {
        "address": "浦东新区和佳路105弄",
        "comprehension": 100,
        "confidence": 80,
        "district": "浦东新区",
        "location": {
            "lat": 31.133297374938646,
            "lng": 121.52030208408404
        },
        "precise": 1
    },
    {
        "address": "浦东新区浦三路635弄",
        "comprehension": 100,
        "confidence": 70,
        "district": "浦东新区",
        "location": {
            "lat": 31.195144302174068,
            "lng": 121.52513218298063
        },
        "precise": 1
    },
    {
        "address": "浦东新区乳山四村",
        "comprehension": 100,
        "confidence": 50,
        "district": "浦东新区",
        "location": {
            "lat": 31.23952354170852,
            "lng": 121.52697820080364
        },
        "precise": 0
    },
    {
        "address": "浦东新区浦东大道1585弄",
        "comprehension": 100,
        "confidence": 80,
        "district": "浦东新区",
        "location": {
            "lat": 31.250760642806057,
            "lng": 121.54725475277486
        },
        "precise": 1
    },
    {
        "address": "浦东新区联勤村麦家宅",
        "comprehension": 100,
        "confidence": 50,
        "district": "浦东新区",
        "location": {
            "lat": 31.16926349405447,
            "lng": 121.55391344236757
        },
        "precise": 0
    },
    {
        "address": "浦东新区下南路309弄",
        "comprehension": 100,
        "confidence": 30,
        "district": "浦东新区",
        "location": {
            "lat": 31.176934122698174,
            "lng": 121.54938616225839
        },
        "precise": 0
    },
    {
        "address": "浦东新区鹏飞路411弄",
        "comprehension": 100,
        "confidence": 70,
        "district": "浦东新区",
        "location": {
            "lat": 31.177011748832836,
            "lng": 121.56205891740986
        },
        "precise": 1
    },
    {
        "address": "浦东新区莲溪路1099弄",
        "comprehension": 100,
        "confidence": 80,
        "district": "浦东新区",
        "location": {
            "lat": 31.18174774834683,
            "lng": 121.56986339568053
        },
        "precise": 1
    },
    {
        "address": "浦东新区北蔡镇顾家宅",
        "comprehension": 100,
        "confidence": 50,
        "district": "浦东新区",
        "location": {
            "lat": 31.191014451882285,
            "lng": 121.56739566061408
        },
        "precise": 0
    },
    {
        "address": "浦东新区沪南路577弄",
        "comprehension": 100,
        "confidence": 70,
        "district": "浦东新区",
        "location": {
            "lat": 31.196656740843373,
            "lng": 121.55841799534736
        },
        "precise": 1
    },
    {
        "address": "浦东新区莲园路8弄",
        "comprehension": 100,
        "confidence": 80,
        "district": "浦东新区",
        "location": {
            "lat": 31.190528220831894,
            "lng": 121.54860508561747
        },
        "precise": 1
    },
    {
        "address": "浦东新区绿林路320弄",
        "comprehension": 100,
        "confidence": 80,
        "district": "浦东新区",
        "location": {
            "lat": 31.176162646734344,
            "lng": 121.55483474449859
        },
        "precise": 1
    },
    {
        "address": "浦东新区联勤村李家宅",
        "comprehension": 100,
        "confidence": 50,
        "district": "浦东新区",
        "location": {
            "lat": 31.173231011079945,
            "lng": 121.55718596934042
        },
        "precise": 0
    },
    {
        "address": "浦东新区海阳路1065弄",
        "comprehension": 100,
        "confidence": 80,
        "district": "浦东新区",
        "location": {
            "lat": 31.16475645125977,
            "lng": 121.51253497532255
        },
        "precise": 1
    },
    {
        "address": "浦东新区丁香路1299弄",
        "comprehension": 100,
        "confidence": 80,
        "district": "浦东新区",
        "location": {
            "lat": 31.236016885940792,
            "lng": 121.56935998527274
        },
        "precise": 1
    },
    {
        "address": "浦东新区国展路1765号工地",
        "comprehension": 94,
        "confidence": 80,
        "district": "浦东新区",
        "location": {
            "lat": 31.18795425612223,
            "lng": 121.49519079743523
        },
        "precise": 0
    },
    {
        "address": "浦东新区浦东南路2054弄",
        "comprehension": 100,
        "confidence": 80,
        "district": "浦东新区",
        "location": {
            "lat": 31.216629760700197,
            "lng": 121.52356140596589
        },
        "precise": 1
    },
    {
        "address": "浦东新区柳杉路99弄",
        "comprehension": 100,
        "confidence": 80,
        "district": "浦东新区",
        "location": {
            "lat": 31.230508819026944,
            "lng": 121.57639722080737
        },
        "precise": 1
    },
    {
        "address": "浦东新区东绣路1086弄",
        "comprehension": 100,
        "confidence": 80,
        "district": "浦东新区",
        "location": {
            "lat": 31.20526918311545,
            "lng": 121.5429417185298
        },
        "precise": 1
    },
    {
        "address": "浦东新区环林西路608弄",
        "comprehension": 100,
        "confidence": 80,
        "district": "浦东新区",
        "location": {
            "lat": 31.146505600587343,
            "lng": 121.52649814633911
        },
        "precise": 1
    },
    {
        "address": "浦东新区杨莲路张家宅",
        "comprehension": 100,
        "confidence": 50,
        "district": "浦东新区",
        "location": {
            "lat": 31.167835971840162,
            "lng": 121.52958652068241
        },
        "precise": 0
    },
    {
        "address": "浦东新区法赛路518号",
        "comprehension": 100,
        "confidence": 80,
        "district": "浦东新区",
        "location": {
            "lat": 31.319361467861132,
            "lng": 121.6281577639534
        },
        "precise": 1
    },
    {
        "address": "浦东新区申城佳苑二期",
        "comprehension": 100,
        "confidence": 70,
        "district": "浦东新区",
        "location": {
            "lat": 31.1884429437166,
            "lng": 121.64304250659264
        },
        "precise": 1
    },
    {
        "address": "浦东新区康弘路508弄",
        "comprehension": 100,
        "confidence": 80,
        "district": "浦东新区",
        "location": {
            "lat": 31.12693472616589,
            "lng": 121.60698461325266
        },
        "precise": 1
    },
    {
        "address": "浦东新区御桥路269弄",
        "comprehension": 100,
        "confidence": 75,
        "district": "浦东新区",
        "location": {
            "lat": 31.156692595525676,
            "lng": 121.54270276926415
        },
        "precise": 1
    },
    {
        "address": "浦东新区三杨新村一街坊",
        "comprehension": 100,
        "confidence": 70,
        "district": "浦东新区",
        "location": {
            "lat": 31.160347149561034,
            "lng": 121.4955228655746
        },
        "precise": 1
    },
    {
        "address": "浦东新区新雅东路51弄",
        "comprehension": 99,
        "confidence": 80,
        "district": "浦东新区",
        "location": {
            "lat": 31.24386901952387,
            "lng": 121.6935185721458
        },
        "precise": 0
    },
    {
        "address": "浦东新区上南路5588号",
        "comprehension": 100,
        "confidence": 80,
        "district": "浦东新区",
        "location": {
            "lat": 31.12914416758575,
            "lng": 121.53410068553116
        },
        "precise": 1
    },
    {
        "address": "浦东新区新营村顾家宅",
        "comprehension": 100,
        "confidence": 50,
        "district": "浦东新区",
        "location": {
            "lat": 31.202485251102743,
            "lng": 121.74826300724847
        },
        "precise": 0
    },
    {
        "address": "浦东新区中界村周家宅",
        "comprehension": 100,
        "confidence": 50,
        "district": "浦东新区",
        "location": {
            "lat": 31.19544617406339,
            "lng": 121.57417373500905
        },
        "precise": 0
    },
    {
        "address": "浦东新区中界村庄家队蔡家宅",
        "comprehension": 24,
        "confidence": 50,
        "district": "浦东新区",
        "location": {
            "lat": 31.19544617406339,
            "lng": 121.57417373500905
        },
        "precise": 0
    },
    {
        "address": "浦东新区下南路526弄",
        "comprehension": 100,
        "confidence": 70,
        "district": "浦东新区",
        "location": {
            "lat": 31.1784433022666,
            "lng": 121.54563564692369
        },
        "precise": 1
    },
    {
        "address": "浦东新区鹏岳路70弄",
        "comprehension": 100,
        "confidence": 80,
        "district": "浦东新区",
        "location": {
            "lat": 31.180936844062057,
            "lng": 121.55880363790278
        },
        "precise": 1
    },
    {
        "address": "浦东新区三彩路52弄",
        "comprehension": 100,
        "confidence": 50,
        "district": "浦东新区",
        "location": {
            "lat": 31.132499497966034,
            "lng": 121.5030818369494
        },
        "precise": 0
    },
    {
        "address": "浦东新区寿光路78弄",
        "comprehension": 100,
        "confidence": 50,
        "district": "浦东新区",
        "location": {
            "lat": 31.279354129437284,
            "lng": 121.59200186548229
        },
        "precise": 0
    },
    {
        "address": "浦东新区杨南路689弄",
        "comprehension": 100,
        "confidence": 80,
        "district": "浦东新区",
        "location": {
            "lat": 31.15691772109531,
            "lng": 121.50710462868419
        },
        "precise": 1
    },
    {
        "address": "浦东新区瑞浦路77弄",
        "comprehension": 100,
        "confidence": 80,
        "district": "浦东新区",
        "location": {
            "lat": 31.10356788209418,
            "lng": 121.59215835030213
        },
        "precise": 1
    },
    {
        "address": "浦东新区康沈路400弄",
        "comprehension": 100,
        "confidence": 50,
        "district": "浦东新区",
        "location": {
            "lat": 31.14633693089139,
            "lng": 121.5773097195444
        },
        "precise": 0
    },
    {
        "address": "浦东新区沈家弄路901弄",
        "comprehension": 100,
        "confidence": 80,
        "district": "浦东新区",
        "location": {
            "lat": 31.244971955008257,
            "lng": 121.55289826731075
        },
        "precise": 1
    },
    {
        "address": "浦东新区明纶园",
        "comprehension": 100,
        "confidence": 70,
        "district": "浦东新区",
        "location": {
            "lat": 31.151929602994812,
            "lng": 121.57053523837145
        },
        "precise": 1
    },
    {
        "address": "浦东新区周东南路599弄",
        "comprehension": 100,
        "confidence": 70,
        "district": "浦东新区",
        "location": {
            "lat": 31.10441485812352,
            "lng": 121.59884596533226
        },
        "precise": 1
    },
    {
        "address": "浦东新区陈春路299号",
        "comprehension": 100,
        "confidence": 80,
        "district": "浦东新区",
        "location": {
            "lat": 31.1779532212839,
            "lng": 121.55616800953652
        },
        "precise": 1
    },
    {
        "address": "浦东新区鹏岳路152弄",
        "comprehension": 100,
        "confidence": 80,
        "district": "浦东新区",
        "location": {
            "lat": 31.177214966797443,
            "lng": 121.56093334060584
        },
        "precise": 1
    },
    {
        "address": "浦东新区御水路555弄",
        "comprehension": 100,
        "confidence": 50,
        "district": "浦东新区",
        "location": {
            "lat": 31.160305200831736,
            "lng": 121.58232702530928
        },
        "precise": 0
    },
    {
        "address": "浦东新区五星村陈家队陈家宅",
        "comprehension": 100,
        "confidence": 70,
        "district": "浦东新区",
        "location": {
            "lat": 31.194413133383005,
            "lng": 121.57857947438275
        },
        "precise": 1
    },
    {
        "address": "浦东新区周康路868弄",
        "comprehension": 100,
        "confidence": 80,
        "district": "浦东新区",
        "location": {
            "lat": 31.107585868005593,
            "lng": 121.58027502603284
        },
        "precise": 1
    },
    {
        "address": "浦东新区秀龙村",
        "comprehension": 100,
        "confidence": 50,
        "district": "浦东新区",
        "location": {
            "lat": 31.132605675883436,
            "lng": 121.5691399004228
        },
        "precise": 0
    },
    {
        "address": "浦东新区中界村沈家宅",
        "comprehension": 100,
        "confidence": 50,
        "district": "浦东新区",
        "location": {
            "lat": 31.19544617406339,
            "lng": 121.57417373500905
        },
        "precise": 0
    },
    {
        "address": "浦东新区陈春路620弄",
        "comprehension": 100,
        "confidence": 80,
        "district": "浦东新区",
        "location": {
            "lat": 31.179314705497738,
            "lng": 121.5524308789539
        },
        "precise": 1
    },
    {
        "address": "浦东新区博兴路1185弄",
        "comprehension": 100,
        "confidence": 80,
        "district": "浦东新区",
        "location": {
            "lat": 31.274160727405675,
            "lng": 121.6008308611871
        },
        "precise": 1
    },
    {
        "address": "浦东新区紫叶路81弄",
        "comprehension": 100,
        "confidence": 80,
        "district": "浦东新区",
        "location": {
            "lat": 31.18971870540851,
            "lng": 121.55772216789933
        },
        "precise": 1
    },
    {
        "address": "浦东新区康杉路151弄",
        "comprehension": 100,
        "confidence": 80,
        "district": "浦东新区",
        "location": {
            "lat": 31.15772404321492,
            "lng": 121.56730133853553
        },
        "precise": 1
    },
    {
        "address": "浦东新区御衡路68弄",
        "comprehension": 100,
        "confidence": 80,
        "district": "浦东新区",
        "location": {
            "lat": 31.159592610343985,
            "lng": 121.58833740781544
        },
        "precise": 1
    },
    {
        "address": "浦东新区阳光二村",
        "comprehension": 100,
        "confidence": 50,
        "district": "浦东新区",
        "location": {
            "lat": 31.25264657192194,
            "lng": 121.5570400845256
        },
        "precise": 0
    },
    {
        "address": "浦东新区金杨路220弄",
        "comprehension": 100,
        "confidence": 75,
        "district": "浦东新区",
        "location": {
            "lat": 31.253276801497623,
            "lng": 121.58149717067916
        },
        "precise": 1
    },
    {
        "address": "浦东新区花墙村",
        "comprehension": 100,
        "confidence": 50,
        "district": "浦东新区",
        "location": {
            "lat": 31.156328175262196,
            "lng": 121.55274169266035
        },
        "precise": 0
    },
    {
        "address": "浦东新区顾家宅98号",
        "comprehension": 100,
        "confidence": 75,
        "district": "浦东新区",
        "location": {
            "lat": 31.347074058164946,
            "lng": 121.57568288826582
        },
        "precise": 1
    },
    {
        "address": "浦东新区碧云路333弄",
        "comprehension": 100,
        "confidence": 80,
        "district": "浦东新区",
        "location": {
            "lat": 31.24398785556432,
            "lng": 121.58332800713904
        },
        "precise": 1
    },
    {
        "address": "浦东新区南新村东钟家宅",
        "comprehension": 100,
        "confidence": 70,
        "district": "浦东新区",
        "location": {
            "lat": 31.173251634963325,
            "lng": 121.54865494157326
        },
        "precise": 1
    },
    {
        "address": "浦东新区庆丰村六队顾家宅",
        "comprehension": 100,
        "confidence": 50,
        "district": "浦东新区",
        "location": {
            "lat": 31.110387612010992,
            "lng": 121.6933932490713
        },
        "precise": 0
    },
    {
        "address": "浦东新区华夏东路858弄",
        "comprehension": 100,
        "confidence": 80,
        "district": "浦东新区",
        "location": {
            "lat": 31.200240393252276,
            "lng": 121.67106308087372
        },
        "precise": 1
    },
    {
        "address": "浦东新区杨高南路3288弄",
        "comprehension": 100,
        "confidence": 75,
        "district": "浦东新区",
        "location": {
            "lat": 31.17462515993693,
            "lng": 121.52558241370224
        },
        "precise": 1
    },
    {
        "address": "浦东新区环林西路618弄",
        "comprehension": 100,
        "confidence": 80,
        "district": "浦东新区",
        "location": {
            "lat": 31.14571896209596,
            "lng": 121.52907170179465
        },
        "precise": 1
    },
    {
        "address": "浦东新区下南路西钟家宅",
        "comprehension": 100,
        "confidence": 70,
        "district": "浦东新区",
        "location": {
            "lat": 31.173251634963325,
            "lng": 121.54865494157326
        },
        "precise": 1
    },
    {
        "address": "浦东新区玉盘北路281弄",
        "comprehension": 100,
        "confidence": 70,
        "district": "浦东新区",
        "location": {
            "lat": 31.23174247696057,
            "lng": 121.68004128512374
        },
        "precise": 1
    },
    {
        "address": "浦东新区唐四村黄家东宅",
        "comprehension": 100,
        "confidence": 50,
        "district": "浦东新区",
        "location": {
            "lat": 31.224156161077826,
            "lng": 121.6737448821432
        },
        "precise": 0
    },
    {
        "address": "浦东新区上钢一村",
        "comprehension": 100,
        "confidence": 70,
        "district": "浦东新区",
        "location": {
            "lat": 31.178239082858738,
            "lng": 121.50096839357609
        },
        "precise": 1
    },
    {
        "address": "浦东新区凌兆路127弄",
        "comprehension": 100,
        "confidence": 80,
        "district": "浦东新区",
        "location": {
            "lat": 31.1477960721254,
            "lng": 121.5000277778766
        },
        "precise": 1
    },
    {
        "address": "浦东新区浦东大道501弄",
        "comprehension": 100,
        "confidence": 80,
        "district": "浦东新区",
        "location": {
            "lat": 31.248512929274547,
            "lng": 121.5251071202569
        },
        "precise": 1
    },
    {
        "address": "浦东新区乳山路200弄",
        "comprehension": 100,
        "confidence": 80,
        "district": "浦东新区",
        "location": {
            "lat": 31.2435075340906,
            "lng": 121.53552171501738
        },
        "precise": 1
    },
    {
        "address": "浦东新区康安路御北路交叉口北侧工地",
        "comprehension": 57,
        "confidence": 30,
        "district": "浦东新区",
        "location": {
            "lat": 31.16393929723239,
            "lng": 121.56378599958333
        },
        "precise": 0
    },
    {
        "address": "浦东新区御北路385号",
        "comprehension": 100,
        "confidence": 80,
        "district": "浦东新区",
        "location": {
            "lat": 31.164465836320886,
            "lng": 121.56399000476466
        },
        "precise": 1
    },
    {
        "address": "浦东新区宣中路621弄",
        "comprehension": 100,
        "confidence": 50,
        "district": "浦东新区",
        "location": {
            "lat": 31.030314702838574,
            "lng": 121.71051683853305
        },
        "precise": 0
    },
    {
        "address": "浦东新区牡丹路259弄",
        "comprehension": 100,
        "confidence": 70,
        "district": "浦东新区",
        "location": {
            "lat": 31.214654701261765,
            "lng": 121.5558250364928
        },
        "precise": 1
    },
    {
        "address": "浦东新区绿林路51弄",
        "comprehension": 100,
        "confidence": 80,
        "district": "浦东新区",
        "location": {
            "lat": 31.180852424344394,
            "lng": 121.55520295992714
        },
        "precise": 1
    },
    {
        "address": "浦东新区新浦路477弄",
        "comprehension": 100,
        "confidence": 50,
        "district": "浦东新区",
        "location": {
            "lat": 31.177013679830385,
            "lng": 121.53952276775883
        },
        "precise": 0
    },
    {
        "address": "浦东新区锦绣路3841弄",
        "comprehension": 100,
        "confidence": 80,
        "district": "浦东新区",
        "location": {
            "lat": 31.174276257765616,
            "lng": 121.55337814211418
        },
        "precise": 1
    },
    {
        "address": "浦东新区鹏飞路51弄",
        "comprehension": 100,
        "confidence": 75,
        "district": "浦东新区",
        "location": {
            "lat": 31.18149263748743,
            "lng": 121.56052119803788
        },
        "precise": 1
    },
    {
        "address": "浦东新区张杨路1133弄",
        "comprehension": 100,
        "confidence": 80,
        "district": "浦东新区",
        "location": {
            "lat": 31.237677641037152,
            "lng": 121.53567981678714
        },
        "precise": 1
    },
    {
        "address": "浦东新区御桥村姚家宅",
        "comprehension": 100,
        "confidence": 50,
        "district": "浦东新区",
        "location": {
            "lat": 31.162329302205315,
            "lng": 121.56411783363872
        },
        "precise": 0
    },
    {
        "address": "浦东新区浦东大道580号",
        "comprehension": 100,
        "confidence": 80,
        "district": "浦东新区",
        "location": {
            "lat": 31.24609806080326,
            "lng": 121.52850891339264
        },
        "precise": 1
    },
    {
        "address": "浦东新区下南路551弄",
        "comprehension": 100,
        "confidence": 70,
        "district": "浦东新区",
        "location": {
            "lat": 31.179016875274282,
            "lng": 121.54679904238965
        },
        "precise": 1
    },
    {
        "address": "浦东新区天花庵村卫家队",
        "comprehension": 100,
        "confidence": 50,
        "district": "浦东新区",
        "location": {
            "lat": 31.13278372068077,
            "lng": 121.53126967571646
        },
        "precise": 0
    },
    {
        "address": "浦东新区杨莲路和博华路交界工地生活区",
        "comprehension": 24,
        "confidence": 30,
        "district": "浦东新区",
        "location": {
            "lat": 31.188474222057643,
            "lng": 121.55396671188431
        },
        "precise": 0
    },
    {
        "address": "浦东新区莲溪路477弄",
        "comprehension": 100,
        "confidence": 80,
        "district": "浦东新区",
        "location": {
            "lat": 31.188689385868962,
            "lng": 121.56893382913881
        },
        "precise": 1
    },
    {
        "address": "浦东新区新浦路350弄",
        "comprehension": 100,
        "confidence": 70,
        "district": "浦东新区",
        "location": {
            "lat": 31.177803917931705,
            "lng": 121.54104081424015
        },
        "precise": 1
    },
    {
        "address": "浦东新区新浦路673弄",
        "comprehension": 100,
        "confidence": 70,
        "district": "浦东新区",
        "location": {
            "lat": 31.203423628202646,
            "lng": 121.56942439152306
        },
        "precise": 1
    },
    {
        "address": "浦东新区陈春东路99弄",
        "comprehension": 100,
        "confidence": 80,
        "district": "浦东新区",
        "location": {
            "lat": 31.181856496573577,
            "lng": 121.56589701753178
        },
        "precise": 1
    },
    {
        "address": "浦东新区浦建路1086弄",
        "comprehension": 100,
        "confidence": 80,
        "district": "浦东新区",
        "location": {
            "lat": 31.21291640447759,
            "lng": 121.54495742626365
        },
        "precise": 1
    },
    {
        "address": "浦东新区芳华路310弄",
        "comprehension": 100,
        "confidence": 80,
        "district": "浦东新区",
        "location": {
            "lat": 31.201334527828102,
            "lng": 121.56401821155765
        },
        "precise": 1
    },
    {
        "address": "浦东新区牡丹路343号",
        "comprehension": 100,
        "confidence": 80,
        "district": "浦东新区",
        "location": {
            "lat": 31.214424541317776,
            "lng": 121.55636788251249
        },
        "precise": 1
    },
    {
        "address": "浦东新区五星路239弄",
        "comprehension": 100,
        "confidence": 80,
        "district": "浦东新区",
        "location": {
            "lat": 31.181781423237346,
            "lng": 121.56995448385925
        },
        "precise": 1
    },
    {
        "address": "浦东新区芳华路411弄",
        "comprehension": 100,
        "confidence": 80,
        "district": "浦东新区",
        "location": {
            "lat": 31.202399460853744,
            "lng": 121.56557030381781
        },
        "precise": 1
    },
    {
        "address": "浦东新区博华路980弄",
        "comprehension": 100,
        "confidence": 80,
        "district": "浦东新区",
        "location": {
            "lat": 31.17727104282873,
            "lng": 121.55642681135393
        },
        "precise": 1
    },
    {
        "address": "浦东新区五星村徐家队奚家宅",
        "comprehension": 100,
        "confidence": 50,
        "district": "浦东新区",
        "location": {
            "lat": 31.191014451882285,
            "lng": 121.56739566061408
        },
        "precise": 0
    },
    {
        "address": "浦东新区浦东大道1539号",
        "comprehension": 100,
        "confidence": 80,
        "district": "浦东新区",
        "location": {
            "lat": 31.25008509182825,
            "lng": 121.54490415674691
        },
        "precise": 1
    },
    {
        "address": "浦东新区金高路1051弄",
        "comprehension": 100,
        "confidence": 80,
        "district": "浦东新区",
        "location": {
            "lat": 31.288703207126414,
            "lng": 121.61755748944401
        },
        "precise": 1
    },
    {
        "address": "浦东新区博华路1018弄",
        "comprehension": 100,
        "confidence": 80,
        "district": "浦东新区",
        "location": {
            "lat": 31.176850857976813,
            "lng": 121.55750199321884
        },
        "precise": 1
    },
    {
        "address": "浦东新区莲溪二村",
        "comprehension": 100,
        "confidence": 70,
        "district": "浦东新区",
        "location": {
            "lat": 31.19130042808323,
            "lng": 121.56594121416288
        },
        "precise": 1
    },
    {
        "address": "浦东新区中界村苏家宅",
        "comprehension": 100,
        "confidence": 70,
        "district": "浦东新区",
        "location": {
            "lat": 31.19161049851133,
            "lng": 121.57702962788638
        },
        "precise": 1
    },
    {
        "address": "浦东新区下南路370弄",
        "comprehension": 100,
        "confidence": 50,
        "district": "浦东新区",
        "location": {
            "lat": 31.176843211212987,
            "lng": 121.54711838999846
        },
        "precise": 0
    },
    {
        "address": "浦东新区康士路31号",
        "comprehension": 100,
        "confidence": 80,
        "district": "浦东新区",
        "location": {
            "lat": 31.15708614000837,
            "lng": 121.57006003475666
        },
        "precise": 1
    },
    {
        "address": "浦东新区严民路40弄",
        "comprehension": 100,
        "confidence": 80,
        "district": "浦东新区",
        "location": {
            "lat": 31.198209156327895,
            "lng": 121.53536082850054
        },
        "precise": 1
    },
    {
        "address": "浦东新区昌里东路411弄",
        "comprehension": 100,
        "confidence": 80,
        "district": "浦东新区",
        "location": {
            "lat": 31.185511228668684,
            "lng": 121.51930155140703
        },
        "precise": 1
    },
    {
        "address": "浦东新区顾全路381号",
        "comprehension": 100,
        "confidence": 80,
        "district": "浦东新区",
        "location": {
            "lat": 31.177750236637284,
            "lng": 121.54600637760764
        },
        "precise": 1
    },
    {
        "address": "浦东新区严杨路60弄",
        "comprehension": 100,
        "confidence": 70,
        "district": "浦东新区",
        "location": {
            "lat": 31.20036688077375,
            "lng": 121.53619499499712
        },
        "precise": 1
    },
    {
        "address": "浦东新区北蔡姚家宅",
        "comprehension": 57,
        "confidence": 25,
        "district": "浦东新区",
        "location": {
            "lat": 31.188175725858915,
            "lng": 121.56095445078532
        },
        "precise": 0
    },
    {
        "address": "浦东新区卫行村",
        "comprehension": 100,
        "confidence": 50,
        "district": "浦东新区",
        "location": {
            "lat": 31.166665202015878,
            "lng": 121.58720141066752
        },
        "precise": 0
    },
    {
        "address": "浦东新区绿林路50弄",
        "comprehension": 100,
        "confidence": 80,
        "district": "浦东新区",
        "location": {
            "lat": 31.17853089093836,
            "lng": 121.55494703268735
        },
        "precise": 1
    },
    {
        "address": "浦东新区顾全路379号",
        "comprehension": 100,
        "confidence": 80,
        "district": "浦东新区",
        "location": {
            "lat": 31.1777286868716,
            "lng": 121.5459353216418
        },
        "precise": 1
    },
    {
        "address": "浦东新区陈春东路88弄",
        "comprehension": 100,
        "confidence": 50,
        "district": "浦东新区",
        "location": {
            "lat": 31.181447145347832,
            "lng": 121.56599583113788
        },
        "precise": 0
    },
    {
        "address": "浦东新区严杨路30弄",
        "comprehension": 100,
        "confidence": 70,
        "district": "浦东新区",
        "location": {
            "lat": 31.198276108155607,
            "lng": 121.53251293054227
        },
        "precise": 1
    },
    {
        "address": "浦东新区御桥村东印家圈",
        "comprehension": 100,
        "confidence": 50,
        "district": "浦东新区",
        "location": {
            "lat": 31.17407504173234,
            "lng": 121.56463768303735
        },
        "precise": 0
    },
    {
        "address": "浦东新区崂山新村",
        "comprehension": 100,
        "confidence": 70,
        "district": "浦东新区",
        "location": {
            "lat": 31.244186142787363,
            "lng": 121.52608115292138
        },
        "precise": 1
    },
    {
        "address": "浦东新区赵家厍",
        "comprehension": 100,
        "confidence": 50,
        "district": "浦东新区",
        "location": {
            "lat": 31.176791383130574,
            "lng": 121.54343515774643
        },
        "precise": 0
    },
    {
        "address": "浦东新区御山路360弄",
        "comprehension": 100,
        "confidence": 50,
        "district": "浦东新区",
        "location": {
            "lat": 31.162035666910167,
            "lng": 121.57468244541937
        },
        "precise": 0
    },
    {
        "address": "浦东新区银峰路549弄",
        "comprehension": 100,
        "confidence": 80,
        "district": "浦东新区",
        "location": {
            "lat": 31.272437116739326,
            "lng": 121.69568788066599
        },
        "precise": 1
    },
    {
        "address": "浦东新区民同路176弄",
        "comprehension": 100,
        "confidence": 80,
        "district": "浦东新区",
        "location": {
            "lat": 31.278610039104937,
            "lng": 121.65780364239369
        },
        "precise": 1
    },
    {
        "address": "浦东新区御青路918弄",
        "comprehension": 100,
        "confidence": 80,
        "district": "浦东新区",
        "location": {
            "lat": 31.158767840355527,
            "lng": 121.581132278981
        },
        "precise": 1
    },
    {
        "address": "浦东新区御青路999弄",
        "comprehension": 100,
        "confidence": 80,
        "district": "浦东新区",
        "location": {
            "lat": 31.16029762997253,
            "lng": 121.5795247612709
        },
        "precise": 1
    },
    {
        "address": "浦东新区华夏西路5778号",
        "comprehension": 100,
        "confidence": 80,
        "district": "浦东新区",
        "location": {
            "lat": 31.17266288696628,
            "lng": 121.58671902060865
        },
        "precise": 1
    },
    {
        "address": "浦东新区和平村朱家宅",
        "comprehension": 100,
        "confidence": 50,
        "district": "浦东新区",
        "location": {
            "lat": 31.20555766394675,
            "lng": 121.73625113546069
        },
        "precise": 0
    },
    {
        "address": "浦东新区新舒苑北苑",
        "comprehension": 100,
        "confidence": 70,
        "district": "浦东新区",
        "location": {
            "lat": 30.984518245312536,
            "lng": 121.87074354997303
        },
        "precise": 1
    },
    {
        "address": "浦东新区福缘路219弄",
        "comprehension": 100,
        "confidence": 80,
        "district": "浦东新区",
        "location": {
            "lat": 31.034120375692826,
            "lng": 121.75968460248563
        },
        "precise": 1
    },
    {
        "address": "浦东新区新振村",
        "comprehension": 100,
        "confidence": 50,
        "district": "浦东新区",
        "location": {
            "lat": 30.949054312124062,
            "lng": 121.83883744503908
        },
        "precise": 0
    },
    {
        "address": "浦东新区永宁东路540弄",
        "comprehension": 100,
        "confidence": 80,
        "district": "浦东新区",
        "location": {
            "lat": 30.975313854192404,
            "lng": 121.74681350147756
        },
        "precise": 1
    },
    {
        "address": "浦东新区外灶村",
        "comprehension": 100,
        "confidence": 50,
        "district": "浦东新区",
        "location": {
            "lat": 30.956059345232116,
            "lng": 121.87608729996022
        },
        "precise": 0
    },
    {
        "address": "浦东新区海沈村",
        "comprehension": 100,
        "confidence": 50,
        "district": "浦东新区",
        "location": {
            "lat": 31.032342067589873,
            "lng": 121.80462233562228
        },
        "precise": 0
    },
    {
        "address": "浦东新区拱海路78弄",
        "comprehension": 100,
        "confidence": 80,
        "district": "浦东新区",
        "location": {
            "lat": 31.075214482134594,
            "lng": 121.7468341625043
        },
        "precise": 1
    },
    {
        "address": "浦东新区拱极路2368弄29支弄",
        "comprehension": 99,
        "confidence": 80,
        "district": "浦东新区",
        "location": {
            "lat": 31.062136599854984,
            "lng": 121.78336752895069
        },
        "precise": 0
    },
    {
        "address": "浦东新区万祥馨苑",
        "comprehension": 100,
        "confidence": 70,
        "district": "浦东新区",
        "location": {
            "lat": 30.97365186436141,
            "lng": 121.82427896696106
        },
        "precise": 1
    },
    {
        "address": "浦东新区康锦路88弄",
        "comprehension": 100,
        "confidence": 50,
        "district": "浦东新区",
        "location": {
            "lat": 31.04357196746932,
            "lng": 121.77247135260632
        },
        "precise": 0
    },
    {
        "address": "浦东新区",
        "comprehension": 100,
        "confidence": 20,
        "district": "浦东新区",
        "location": {
            "lat": 31.227348292436346,
            "lng": 121.55045460683195
        },
        "precise": 0
    },
    {
        "address": "黄浦区斜土路486弄",
        "comprehension": 100,
        "confidence": 70,
        "district": "黄浦区",
        "location": {
            "lat": 31.20840937579005,
            "lng": 121.48399823469545
        },
        "precise": 1
    },
    {
        "address": "黄浦区斜土路460弄",
        "comprehension": 100,
        "confidence": 70,
        "district": "黄浦区",
        "location": {
            "lat": 31.20840937579005,
            "lng": 121.48399823469545
        },
        "precise": 1
    },
    {
        "address": "黄浦区吉安路157号",
        "comprehension": 100,
        "confidence": 80,
        "district": "黄浦区",
        "location": {
            "lat": 31.225114838681478,
            "lng": 121.48724003961985
        },
        "precise": 1
    },
    {
        "address": "黄浦区丽园路842弄33号",
        "comprehension": 57,
        "confidence": 50,
        "district": "黄浦区",
        "location": {
            "lat": 31.212375158639645,
            "lng": 121.48239053732424
        },
        "precise": 0
    },
    {
        "address": "黄浦区马当路306弄27号",
        "comprehension": 57,
        "confidence": 50,
        "district": "黄浦区",
        "location": {
            "lat": 31.223240475063676,
            "lng": 121.48126523001189
        },
        "precise": 0
    },
    {
        "address": "黄浦区兴安路98弄",
        "comprehension": 100,
        "confidence": 80,
        "district": "黄浦区",
        "location": {
            "lat": 31.227265458509372,
            "lng": 121.47735140273545
        },
        "precise": 1
    },
    {
        "address": "黄浦区蒙自西路28弄3号",
        "comprehension": 57,
        "confidence": 70,
        "district": "黄浦区",
        "location": {
            "lat": 31.212915864005417,
            "lng": 121.48257010859568
        },
        "precise": 1
    },
    {
        "address": "黄浦区丽园路873号",
        "comprehension": 100,
        "confidence": 80,
        "district": "黄浦区",
        "location": {
            "lat": 31.212775263924414,
            "lng": 121.48254324926093
        },
        "precise": 1
    },
    {
        "address": "黄浦区顺昌路550弄",
        "comprehension": 100,
        "confidence": 80,
        "district": "黄浦区",
        "location": {
            "lat": 31.21774184729144,
            "lng": 121.48557997103741
        },
        "precise": 1
    },
    {
        "address": "黄浦区顺昌路580号",
        "comprehension": 100,
        "confidence": 80,
        "district": "黄浦区",
        "location": {
            "lat": 31.217293586262826,
            "lng": 121.48612596112638
        },
        "precise": 1
    },
    {
        "address": "黄浦区顺昌路590号",
        "comprehension": 100,
        "confidence": 80,
        "district": "黄浦区",
        "location": {
            "lat": 31.21715415085829,
            "lng": 121.48615291029168
        },
        "precise": 1
    },
    {
        "address": "黄浦区顺昌路612弄23号",
        "comprehension": 100,
        "confidence": 30,
        "district": "黄浦区",
        "location": {
            "lat": 31.220331389007576,
            "lng": 121.4855653286576
        },
        "precise": 0
    },
    {
        "address": "黄浦区顺昌路612弄40号",
        "comprehension": 100,
        "confidence": 30,
        "district": "黄浦区",
        "location": {
            "lat": 31.220331389007576,
            "lng": 121.4855653286576
        },
        "precise": 0
    },
    {
        "address": "黄浦区五里桥路235弄",
        "comprehension": 100,
        "confidence": 80,
        "district": "黄浦区",
        "location": {
            "lat": 31.209650119761722,
            "lng": 121.48660664440476
        },
        "precise": 1
    },
    {
        "address": "黄浦区中山南一路1109弄1号",
        "comprehension": 100,
        "confidence": 80,
        "district": "黄浦区",
        "location": {
            "lat": 31.227846915616347,
            "lng": 121.50263834351914
        },
        "precise": 1
    },
    {
        "address": "黄浦区蒙自西路10号",
        "comprehension": 99,
        "confidence": 80,
        "district": "黄浦区",
        "location": {
            "lat": 31.21345590996484,
            "lng": 121.48320044957202
        },
        "precise": 0
    },
    {
        "address": "黄浦区蒙自西路14号",
        "comprehension": 100,
        "confidence": 80,
        "district": "黄浦区",
        "location": {
            "lat": 31.21346907424592,
            "lng": 121.4831213088566
        },
        "precise": 1
    },
    {
        "address": "黄浦区蒙自西路72弄1号",
        "comprehension": 57,
        "confidence": 75,
        "district": "黄浦区",
        "location": {
            "lat": 31.21295253889574,
            "lng": 121.48108709602926
        },
        "precise": 1
    },
    {
        "address": "黄浦区打浦路316弄2号",
        "comprehension": 57,
        "confidence": 70,
        "district": "黄浦区",
        "location": {
            "lat": 31.20540045126984,
            "lng": 121.47709924837882
        },
        "precise": 1
    },
    {
        "address": "黄浦区丽园路875号",
        "comprehension": 100,
        "confidence": 80,
        "district": "黄浦区",
        "location": {
            "lat": 31.212645009844376,
            "lng": 121.48247937973917
        },
        "precise": 1
    },
    {
        "address": "黄浦区安澜路41号",
        "comprehension": 100,
        "confidence": 80,
        "district": "黄浦区",
        "location": {
            "lat": 31.221567033989263,
            "lng": 121.49295209486615
        },
        "precise": 1
    },
    {
        "address": "黄浦区新昌路477弄",
        "comprehension": 100,
        "confidence": 80,
        "district": "黄浦区",
        "location": {
            "lat": 31.24455168792447,
            "lng": 121.47327273639796
        },
        "precise": 1
    },
    {
        "address": "黄浦区建国东路37弄3号",
        "comprehension": 100,
        "confidence": 30,
        "district": "黄浦区",
        "location": {
            "lat": 31.218282598869006,
            "lng": 121.48324356823652
        },
        "precise": 0
    },
    {
        "address": "黄浦区局门路1弄1号",
        "comprehension": 100,
        "confidence": 20,
        "district": "黄浦区",
        "location": {
            "lat": 31.23724715206362,
            "lng": 121.49158559252436
        },
        "precise": 0
    },
    {
        "address": "黄浦区斜土路460弄19号",
        "comprehension": 57,
        "confidence": 70,
        "district": "黄浦区",
        "location": {
            "lat": 31.20840937579005,
            "lng": 121.48399823469545
        },
        "precise": 1
    },
    {
        "address": "黄浦区瑞金二路410弄11号",
        "comprehension": 57,
        "confidence": 70,
        "district": "黄浦区",
        "location": {
            "lat": 31.21265280810797,
            "lng": 121.47347880768194
        },
        "precise": 1
    },
    {
        "address": "黄浦区中山南路200号10号楼",
        "comprehension": 100,
        "confidence": 80,
        "district": "黄浦区",
        "location": {
            "lat": 31.2284519915471,
            "lng": 121.50862114804613
        },
        "precise": 1
    },
    {
        "address": "黄浦区中山南一路247弄",
        "comprehension": 100,
        "confidence": 80,
        "district": "黄浦区",
        "location": {
            "lat": 31.20630496106852,
            "lng": 121.49296071859904
        },
        "precise": 1
    },
    {
        "address": "黄浦区大吉路310弄1号",
        "comprehension": 57,
        "confidence": 70,
        "district": "黄浦区",
        "location": {
            "lat": 31.223077810739706,
            "lng": 121.4683930510372
        },
        "precise": 1
    },
    {
        "address": "黄浦区牌楼路43弄",
        "comprehension": 99,
        "confidence": 80,
        "district": "黄浦区",
        "location": {
            "lat": 31.219539842511622,
            "lng": 121.49293443711096
        },
        "precise": 0
    },
    {
        "address": "黄浦区思南路82弄",
        "comprehension": 100,
        "confidence": 75,
        "district": "黄浦区",
        "location": {
            "lat": 31.21547365223381,
            "lng": 121.4766426396881
        },
        "precise": 1
    },
    {
        "address": "黄浦区黄陂南路783号",
        "comprehension": 100,
        "confidence": 80,
        "district": "黄浦区",
        "location": {
            "lat": 31.218270940779707,
            "lng": 121.48418822631079
        },
        "precise": 1
    },
    {
        "address": "黄浦区永年路149弄",
        "comprehension": 100,
        "confidence": 80,
        "district": "黄浦区",
        "location": {
            "lat": 31.217075940321728,
            "lng": 121.48509928775901
        },
        "precise": 1
    },
    {
        "address": "黄浦区顺昌路612弄44号",
        "comprehension": 100,
        "confidence": 30,
        "district": "黄浦区",
        "location": {
            "lat": 31.220331389007576,
            "lng": 121.4855653286576
        },
        "precise": 0
    },
    {
        "address": "黄浦区顺昌路594号",
        "comprehension": 100,
        "confidence": 80,
        "district": "黄浦区",
        "location": {
            "lat": 31.217092848626873,
            "lng": 121.48617096623242
        },
        "precise": 1
    },
    {
        "address": "黄浦区复兴东路740号",
        "comprehension": 100,
        "confidence": 80,
        "district": "黄浦区",
        "location": {
            "lat": 31.227257815860032,
            "lng": 121.49738747832167
        },
        "precise": 1
    },
    {
        "address": "黄浦区丽园路871号",
        "comprehension": 100,
        "confidence": 80,
        "district": "黄浦区",
        "location": {
            "lat": 31.21267844199958,
            "lng": 121.48247138482013
        },
        "precise": 1
    },
    {
        "address": "黄浦区",
        "comprehension": 100,
        "confidence": 20,
        "district": "黄浦区",
        "location": {
            "lat": 31.23724715206362,
            "lng": 121.49158559252436
        },
        "precise": 0
    },
    {
        "address": "静安区芷江西路593弄",
        "comprehension": 100,
        "confidence": 80,
        "district": "静安区",
        "location": {
            "lat": 31.263127464478224,
            "lng": 121.46134323922544
        },
        "precise": 1
    },
    {
        "address": "静安区场中路1011弄",
        "comprehension": 100,
        "confidence": 80,
        "district": "静安区",
        "location": {
            "lat": 31.3147642425747,
            "lng": 121.47196219848944
        },
        "precise": 1
    },
    {
        "address": "静安区余姚路321弄",
        "comprehension": 100,
        "confidence": 75,
        "district": "静安区",
        "location": {
            "lat": 31.241068068052705,
            "lng": 121.44443856681647
        },
        "precise": 1
    },
    {
        "address": "静安区中山北路899弄",
        "comprehension": 100,
        "confidence": 50,
        "district": "静安区",
        "location": {
            "lat": 31.268675047373453,
            "lng": 121.46215180401498
        },
        "precise": 0
    },
    {
        "address": "静安区柳营路1085号",
        "comprehension": 100,
        "confidence": 80,
        "district": "静安区",
        "location": {
            "lat": 31.266875558725932,
            "lng": 121.45562130261854
        },
        "precise": 1
    },
    {
        "address": "静安区康定东路63弄",
        "comprehension": 100,
        "confidence": 80,
        "district": "静安区",
        "location": {
            "lat": 31.24354628098904,
            "lng": 121.46294707388296
        },
        "precise": 1
    },
    {
        "address": "静安区普善路铁路新村18号",
        "comprehension": 100,
        "confidence": 75,
        "district": "静安区",
        "location": {
            "lat": 31.26237653113996,
            "lng": 121.4612890714032
        },
        "precise": 1
    },
    {
        "address": "静安区普善路128弄",
        "comprehension": 100,
        "confidence": 80,
        "district": "静安区",
        "location": {
            "lat": 31.2617262215432,
            "lng": 121.46297375355661
        },
        "precise": 1
    },
    {
        "address": "静安区普善路铁路新村12号",
        "comprehension": 100,
        "confidence": 75,
        "district": "静安区",
        "location": {
            "lat": 31.2620678526503,
            "lng": 121.46104356450732
        },
        "precise": 1
    },
    {
        "address": "静安区中华新路836号",
        "comprehension": 100,
        "confidence": 80,
        "district": "静安区",
        "location": {
            "lat": 31.260146923494307,
            "lng": 121.46357049790689
        },
        "precise": 1
    },
    {
        "address": "静安区中华新路939弄",
        "comprehension": 100,
        "confidence": 80,
        "district": "静安区",
        "location": {
            "lat": 31.261891982624878,
            "lng": 121.46199801411167
        },
        "precise": 1
    },
    {
        "address": "静安区中山北路814弄",
        "comprehension": 100,
        "confidence": 70,
        "district": "静安区",
        "location": {
            "lat": 31.265802562401454,
            "lng": 121.46448443393274
        },
        "precise": 1
    },
    {
        "address": "静安区永兴小马路70号",
        "comprehension": 100,
        "confidence": 80,
        "district": "静安区",
        "location": {
            "lat": 31.25751356889404,
            "lng": 121.4708687810227
        },
        "precise": 1
    },
    {
        "address": "静安区西藏北路853弄",
        "comprehension": 100,
        "confidence": 70,
        "district": "静安区",
        "location": {
            "lat": 31.262481944610624,
            "lng": 121.4736235246996
        },
        "precise": 1
    },
    {
        "address": "静安区会文路3号",
        "comprehension": 100,
        "confidence": 80,
        "district": "静安区",
        "location": {
            "lat": 31.25645389341466,
            "lng": 121.48018304136401
        },
        "precise": 1
    },
    {
        "address": "静安区芷江西路285弄",
        "comprehension": 100,
        "confidence": 80,
        "district": "静安区",
        "location": {
            "lat": 31.263678757293864,
            "lng": 121.46675184687047
        },
        "precise": 1
    },
    {
        "address": "静安区芷江西路521弄",
        "comprehension": 100,
        "confidence": 75,
        "district": "静安区",
        "location": {
            "lat": 31.263079311087917,
            "lng": 121.4627572619287
        },
        "precise": 1
    },
    {
        "address": "静安区普善路239弄",
        "comprehension": 100,
        "confidence": 80,
        "district": "静安区",
        "location": {
            "lat": 31.26329530663027,
            "lng": 121.46395694893728
        },
        "precise": 1
    },
    {
        "address": "静安区大统路938弄",
        "comprehension": 100,
        "confidence": 80,
        "district": "静安区",
        "location": {
            "lat": 31.26044272075746,
            "lng": 121.46501793757511
        },
        "precise": 1
    },
    {
        "address": "静安区原平路917弄",
        "comprehension": 100,
        "confidence": 80,
        "district": "静安区",
        "location": {
            "lat": 31.301365533582718,
            "lng": 121.43588427293662
        },
        "precise": 1
    },
    {
        "address": "静安区",
        "comprehension": 100,
        "confidence": 20,
        "district": "静安区",
        "location": {
            "lat": 31.233844930401652,
            "lng": 121.45343177276851
        },
        "precise": 0
    },
    {
        "address": "徐汇区龙吴路1343弄",
        "comprehension": 100,
        "confidence": 80,
        "district": "徐汇区",
        "location": {
            "lat": 31.142578291870645,
            "lng": 121.45733616783708
        },
        "precise": 1
    },
    {
        "address": "徐汇区龙吴路2588弄",
        "comprehension": 100,
        "confidence": 50,
        "district": "徐汇区",
        "location": {
            "lat": 31.12014463833439,
            "lng": 121.46294896032454
        },
        "precise": 0
    },
    {
        "address": "徐汇区斜土路2200弄",
        "comprehension": 100,
        "confidence": 80,
        "district": "徐汇区",
        "location": {
            "lat": 31.19745530787878,
            "lng": 121.45723259321178
        },
        "precise": 1
    },
    {
        "address": "徐汇区天钥桥南路1249弄",
        "comprehension": 100,
        "confidence": 80,
        "district": "徐汇区",
        "location": {
            "lat": 31.15703731400597,
            "lng": 121.46324315537905
        },
        "precise": 1
    },
    {
        "address": "徐汇区桂林东街28弄",
        "comprehension": 100,
        "confidence": 70,
        "district": "徐汇区",
        "location": {
            "lat": 31.161697378752343,
            "lng": 121.4302217143239
        },
        "precise": 1
    },
    {
        "address": "徐汇区冠生园路403弄",
        "comprehension": 100,
        "confidence": 80,
        "district": "徐汇区",
        "location": {
            "lat": 31.16852184953784,
            "lng": 121.43047746190261
        },
        "precise": 1
    },
    {
        "address": "徐汇区大木桥路599弄",
        "comprehension": 100,
        "confidence": 50,
        "district": "徐汇区",
        "location": {
            "lat": 31.200345104545956,
            "lng": 121.47106308450451
        },
        "precise": 0
    },
    {
        "address": "徐汇区汇成一村",
        "comprehension": 100,
        "confidence": 70,
        "district": "徐汇区",
        "location": {
            "lat": 31.153289378964452,
            "lng": 121.43851585892808
        },
        "precise": 1
    },
    {
        "address": "徐汇区老沪闵路1039弄",
        "comprehension": 100,
        "confidence": 70,
        "district": "徐汇区",
        "location": {
            "lat": 31.153863183060615,
            "lng": 121.43369303630612
        },
        "precise": 1
    },
    {
        "address": "徐汇区梅陇四村",
        "comprehension": 100,
        "confidence": 50,
        "district": "徐汇区",
        "location": {
            "lat": 31.142782434378194,
            "lng": 121.42777356231757
        },
        "precise": 0
    },
    {
        "address": "徐汇区龙州路425弄",
        "comprehension": 100,
        "confidence": 70,
        "district": "徐汇区",
        "location": {
            "lat": 31.13547376154926,
            "lng": 121.4331073033219
        },
        "precise": 1
    },
    {
        "address": "徐汇区罗秀路930弄",
        "comprehension": 100,
        "confidence": 80,
        "district": "徐汇区",
        "location": {
            "lat": 31.13750557117837,
            "lng": 121.43281889521437
        },
        "precise": 1
    },
    {
        "address": "徐汇区凯旋一村",
        "comprehension": 100,
        "confidence": 70,
        "district": "徐汇区",
        "location": {
            "lat": 31.199570809638782,
            "lng": 121.4311022333848
        },
        "precise": 1
    },
    {
        "address": "徐汇区康健路100弄",
        "comprehension": 100,
        "confidence": 80,
        "district": "徐汇区",
        "location": {
            "lat": 31.171079922861633,
            "lng": 121.43416132296848
        },
        "precise": 1
    },
    {
        "address": "徐汇区钦州南路8弄",
        "comprehension": 100,
        "confidence": 20,
        "district": "徐汇区",
        "location": {
            "lat": 31.194556772822725,
            "lng": 121.44339635276381
        },
        "precise": 0
    },
    {
        "address": "徐汇区华济路2弄",
        "comprehension": 100,
        "confidence": 20,
        "district": "徐汇区",
        "location": {
            "lat": 31.194556772822725,
            "lng": 121.44339635276381
        },
        "precise": 0
    },
    {
        "address": "徐汇区龙吴路2418弄",
        "comprehension": 100,
        "confidence": 80,
        "district": "徐汇区",
        "location": {
            "lat": 31.125376030198847,
            "lng": 121.46907800898856
        },
        "precise": 1
    },
    {
        "address": "徐汇区龙吴路2388弄",
        "comprehension": 100,
        "confidence": 80,
        "district": "徐汇区",
        "location": {
            "lat": 31.128955219485796,
            "lng": 121.46634913651035
        },
        "precise": 1
    },
    {
        "address": "徐汇区龙吴路1323弄",
        "comprehension": 100,
        "confidence": 80,
        "district": "徐汇区",
        "location": {
            "lat": 31.14733588684881,
            "lng": 121.45619199610904
        },
        "precise": 1
    },
    {
        "address": "徐汇区长桥七村",
        "comprehension": 100,
        "confidence": 50,
        "district": "徐汇区",
        "location": {
            "lat": 31.13744831229077,
            "lng": 121.44386203434019
        },
        "precise": 0
    },
    {
        "address": "徐汇区龙吴路555弄",
        "comprehension": 100,
        "confidence": 80,
        "district": "徐汇区",
        "location": {
            "lat": 31.16322897463324,
            "lng": 121.4560330858643
        },
        "precise": 1
    },
    {
        "address": "徐汇区梅陇十一村",
        "comprehension": 100,
        "confidence": 70,
        "district": "徐汇区",
        "location": {
            "lat": 31.13872183133972,
            "lng": 121.43363204136199
        },
        "precise": 1
    },
    {
        "address": "徐汇区宾南路36弄",
        "comprehension": 100,
        "confidence": 75,
        "district": "徐汇区",
        "location": {
            "lat": 31.166843877452973,
            "lng": 121.4426530049543
        },
        "precise": 1
    },
    {
        "address": "徐汇区龙南五村",
        "comprehension": 100,
        "confidence": 70,
        "district": "徐汇区",
        "location": {
            "lat": 31.161427921589443,
            "lng": 121.46045301846506
        },
        "precise": 1
    },
    {
        "address": "徐汇区桂林西街30弄",
        "comprehension": 100,
        "confidence": 80,
        "district": "徐汇区",
        "location": {
            "lat": 31.161511895277982,
            "lng": 121.42368438580559
        },
        "precise": 1
    },
    {
        "address": "徐汇区天钥新村",
        "comprehension": 100,
        "confidence": 70,
        "district": "徐汇区",
        "location": {
            "lat": 31.192061894349106,
            "lng": 121.45293015897174
        },
        "precise": 1
    },
    {
        "address": "徐汇区梅陇路130号",
        "comprehension": 100,
        "confidence": 80,
        "district": "徐汇区",
        "location": {
            "lat": 31.147574169768635,
            "lng": 121.43210932369203
        },
        "precise": 1
    },
    {
        "address": "徐汇区五原路84弄",
        "comprehension": 100,
        "confidence": 80,
        "district": "徐汇区",
        "location": {
            "lat": 31.219575248069674,
            "lng": 121.4538176848156
        },
        "precise": 1
    },
    {
        "address": "徐汇区乐山路10弄",
        "comprehension": 100,
        "confidence": 80,
        "district": "徐汇区",
        "location": {
            "lat": 31.20294717348723,
            "lng": 121.43948980176201
        },
        "precise": 1
    },
    {
        "address": "徐汇区老沪闵路666弄",
        "comprehension": 100,
        "confidence": 75,
        "district": "徐汇区",
        "location": {
            "lat": 31.151796637480366,
            "lng": 121.43540116423334
        },
        "precise": 1
    },
    {
        "address": "徐汇区清真路99弄",
        "comprehension": 100,
        "confidence": 80,
        "district": "徐汇区",
        "location": {
            "lat": 31.204735923650603,
            "lng": 121.46494247991228
        },
        "precise": 1
    },
    {
        "address": "徐汇区化工二三村",
        "comprehension": 100,
        "confidence": 70,
        "district": "徐汇区",
        "location": {
            "lat": 31.144407290917165,
            "lng": 121.42406167411978
        },
        "precise": 1
    },
    {
        "address": "徐汇区龙吴路1717弄",
        "comprehension": 100,
        "confidence": 80,
        "district": "徐汇区",
        "location": {
            "lat": 31.13827071965649,
            "lng": 121.45670573703019
        },
        "precise": 1
    },
    {
        "address": "徐汇区龙吴路1727弄",
        "comprehension": 100,
        "confidence": 80,
        "district": "徐汇区",
        "location": {
            "lat": 31.137798046867967,
            "lng": 121.46025736752497
        },
        "precise": 1
    },
    {
        "address": "徐汇区长桥四村",
        "comprehension": 100,
        "confidence": 70,
        "district": "徐汇区",
        "location": {
            "lat": 31.1399378439366,
            "lng": 121.44602802858583
        },
        "precise": 1
    },
    {
        "address": "徐汇区龙华路2373弄",
        "comprehension": 100,
        "confidence": 70,
        "district": "徐汇区",
        "location": {
            "lat": 31.18816784832669,
            "lng": 121.45860403623388
        },
        "precise": 1
    },
    {
        "address": "徐汇区古宜路180弄",
        "comprehension": 100,
        "confidence": 80,
        "district": "徐汇区",
        "location": {
            "lat": 31.193157360065012,
            "lng": 121.43152901833258
        },
        "precise": 1
    },
    {
        "address": "徐汇区天等路259弄",
        "comprehension": 100,
        "confidence": 80,
        "district": "徐汇区",
        "location": {
            "lat": 31.142409846923833,
            "lng": 121.43410625684072
        },
        "precise": 1
    },
    {
        "address": "徐汇区田林三村",
        "comprehension": 100,
        "confidence": 50,
        "district": "徐汇区",
        "location": {
            "lat": 31.17735786019942,
            "lng": 121.42860647118643
        },
        "precise": 0
    },
    {
        "address": "徐汇区田林十三村",
        "comprehension": 100,
        "confidence": 50,
        "district": "徐汇区",
        "location": {
            "lat": 31.17996419763881,
            "lng": 121.43187881849818
        },
        "precise": 0
    },
    {
        "address": "徐汇区",
        "comprehension": 100,
        "confidence": 20,
        "district": "徐汇区",
        "location": {
            "lat": 31.194556772822725,
            "lng": 121.44339635276381
        },
        "precise": 0
    },
    {
        "address": "长宁区玉屏南路725号",
        "comprehension": 100,
        "confidence": 80,
        "district": "长宁区",
        "location": {
            "lat": 31.220572574601384,
            "lng": 121.40758791886395
        },
        "precise": 1
    },
    {
        "address": "长宁区愚园路1240弄",
        "comprehension": 99,
        "confidence": 80,
        "district": "长宁区",
        "location": {
            "lat": 31.226178420469655,
            "lng": 121.4327224172026
        },
        "precise": 0
    },
    {
        "address": "长宁区娄山关路988号",
        "comprehension": 100,
        "confidence": 80,
        "district": "长宁区",
        "location": {
            "lat": 31.22208004768527,
            "lng": 121.41175677507466
        },
        "precise": 1
    },
    {
        "address": "长宁区新华路569弄106支弄",
        "comprehension": 100,
        "confidence": 80,
        "district": "长宁区",
        "location": {
            "lat": 31.209618616851035,
            "lng": 121.4267454516614
        },
        "precise": 1
    },
    {
        "address": "长宁区天山西路350弄",
        "comprehension": 100,
        "confidence": 80,
        "district": "长宁区",
        "location": {
            "lat": 31.223654275771523,
            "lng": 121.37306774489596
        },
        "precise": 1
    },
    {
        "address": "长宁区绥宁路628号（公寓）",
        "comprehension": 99,
        "confidence": 80,
        "district": "长宁区",
        "location": {
            "lat": 31.222530138649866,
            "lng": 121.35100051072116
        },
        "precise": 0
    },
    {
        "address": "长宁区华山路1615号",
        "comprehension": 100,
        "confidence": 80,
        "district": "长宁区",
        "location": {
            "lat": 31.20988500142356,
            "lng": 121.4410726160706
        },
        "precise": 1
    },
    {
        "address": "长宁区金钟路333弄",
        "comprehension": 100,
        "confidence": 80,
        "district": "长宁区",
        "location": {
            "lat": 31.22571738468603,
            "lng": 121.37015759436585
        },
        "precise": 1
    },
    {
        "address": "长宁区昭化路518弄",
        "comprehension": 100,
        "confidence": 80,
        "district": "长宁区",
        "location": {
            "lat": 31.217174070214497,
            "lng": 121.4265472854659
        },
        "precise": 1
    },
    {
        "address": "长宁区金钟路255弄",
        "comprehension": 100,
        "confidence": 80,
        "district": "长宁区",
        "location": {
            "lat": 31.225096773821445,
            "lng": 121.37310277881086
        },
        "precise": 1
    },
    {
        "address": "长宁区新华路84弄",
        "comprehension": 100,
        "confidence": 80,
        "district": "长宁区",
        "location": {
            "lat": 31.20814707937481,
            "lng": 121.43720990237769
        },
        "precise": 1
    },
    {
        "address": "长宁区古北路181弄",
        "comprehension": 100,
        "confidence": 75,
        "district": "长宁区",
        "location": {
            "lat": 31.219793737450907,
            "lng": 121.4067171015026
        },
        "precise": 1
    },
    {
        "address": "长宁区金钟路68弄",
        "comprehension": 100,
        "confidence": 80,
        "district": "长宁区",
        "location": {
            "lat": 31.225276881864072,
            "lng": 121.37695201792111
        },
        "precise": 1
    },
    {
        "address": "长宁区东诸安浜路103号",
        "comprehension": 100,
        "confidence": 80,
        "district": "长宁区",
        "location": {
            "lat": 31.223642463948327,
            "lng": 121.44081255662545
        },
        "precise": 1
    },
    {
        "address": "长宁区",
        "comprehension": 100,
        "confidence": 20,
        "district": "长宁区",
        "location": {
            "lat": 31.226847968225428,
            "lng": 121.43045437545099
        },
        "precise": 0
    },
    {
        "address": "普陀区梅川路141弄",
        "comprehension": 100,
        "confidence": 80,
        "district": "普陀区",
        "location": {
            "lat": 31.243692237787094,
            "lng": 121.40892396864895
        },
        "precise": 1
    },
    {
        "address": "普陀区真金路250弄",
        "comprehension": 100,
        "confidence": 80,
        "district": "普陀区",
        "location": {
            "lat": 31.273826007758306,
            "lng": 121.41202698537207
        },
        "precise": 1
    },
    {
        "address": "普陀区真南路744弄",
        "comprehension": 100,
        "confidence": 70,
        "district": "普陀区",
        "location": {
            "lat": 31.27583407617528,
            "lng": 121.39274836099189
        },
        "precise": 1
    },
    {
        "address": "普陀区真南路1111号",
        "comprehension": 100,
        "confidence": 80,
        "district": "普陀区",
        "location": {
            "lat": 31.27668096271111,
            "lng": 121.38461276731022
        },
        "precise": 1
    },
    {
        "address": "普陀区华联路130弄",
        "comprehension": 100,
        "confidence": 50,
        "district": "普陀区",
        "location": {
            "lat": 31.28260471003506,
            "lng": 121.3539649189041
        },
        "precise": 0
    },
    {
        "address": "普陀区真北路3725弄",
        "comprehension": 100,
        "confidence": 80,
        "district": "普陀区",
        "location": {
            "lat": 31.290661273542632,
            "lng": 121.4095403858899
        },
        "precise": 1
    },
    {
        "address": "普陀区新村路424号",
        "comprehension": 100,
        "confidence": 80,
        "district": "普陀区",
        "location": {
            "lat": 31.27148610028324,
            "lng": 121.43467820795892
        },
        "precise": 1
    },
    {
        "address": "普陀区曹杨路1021号",
        "comprehension": 100,
        "confidence": 80,
        "district": "普陀区",
        "location": {
            "lat": 31.250015552943715,
            "lng": 121.41565542098797
        },
        "precise": 1
    },
    {
        "address": "普陀区南大街东江海小区",
        "comprehension": 100,
        "confidence": 70,
        "district": "普陀区",
        "location": {
            "lat": 31.251209824005773,
            "lng": 121.40754030867193
        },
        "precise": 1
    },
    {
        "address": "普陀区新村路1388弄",
        "comprehension": 100,
        "confidence": 80,
        "district": "普陀区",
        "location": {
            "lat": 31.272292285081285,
            "lng": 121.4198542806027
        },
        "precise": 1
    },
    {
        "address": "普陀区雪松路458弄",
        "comprehension": 100,
        "confidence": 80,
        "district": "普陀区",
        "location": {
            "lat": 31.29371435878105,
            "lng": 121.35883418392092
        },
        "precise": 1
    },
    {
        "address": "普陀区梅川路1333弄",
        "comprehension": 100,
        "confidence": 50,
        "district": "普陀区",
        "location": {
            "lat": 31.25034742506805,
            "lng": 121.38423269424894
        },
        "precise": 0
    },
    {
        "address": "普陀区宜川三村",
        "comprehension": 100,
        "confidence": 50,
        "district": "普陀区",
        "location": {
            "lat": 31.263551892325964,
            "lng": 121.44741950382078
        },
        "precise": 0
    },
    {
        "address": "普陀区金迈路358弄",
        "comprehension": 100,
        "confidence": 80,
        "district": "普陀区",
        "location": {
            "lat": 31.293253733179814,
            "lng": 121.33527800836333
        },
        "precise": 1
    },
    {
        "address": "普陀区靖边路199弄",
        "comprehension": 100,
        "confidence": 80,
        "district": "普陀区",
        "location": {
            "lat": 31.267026880696907,
            "lng": 121.37330947890871
        },
        "precise": 1
    },
    {
        "address": "普陀区绿杨路51弄",
        "comprehension": 100,
        "confidence": 80,
        "district": "普陀区",
        "location": {
            "lat": 31.29208784884429,
            "lng": 121.35301397269123
        },
        "precise": 1
    },
    {
        "address": "普陀区武威路1087弄",
        "comprehension": 100,
        "confidence": 70,
        "district": "普陀区",
        "location": {
            "lat": 31.286763769783388,
            "lng": 121.36082384079496
        },
        "precise": 1
    },
    {
        "address": "普陀区",
        "comprehension": 100,
        "confidence": 20,
        "district": "普陀区",
        "location": {
            "lat": 31.254973368279597,
            "lng": 121.40356934916508
        },
        "precise": 0
    },
    {
        "address": "虹口区水电路680号",
        "comprehension": 100,
        "confidence": 80,
        "district": "虹口区",
        "location": {
            "lat": 31.289123815692378,
            "lng": 121.4824404831106
        },
        "precise": 1
    },
    {
        "address": "虹口区水电路1381弄",
        "comprehension": 100,
        "confidence": 80,
        "district": "虹口区",
        "location": {
            "lat": 31.303705000825573,
            "lng": 121.48389358210353
        },
        "precise": 1
    },
    {
        "address": "虹口区运光路71弄",
        "comprehension": 100,
        "confidence": 70,
        "district": "虹口区",
        "location": {
            "lat": 31.29599184163938,
            "lng": 121.50208301105286
        },
        "precise": 1
    },
    {
        "address": "虹口区虹湾路55号",
        "comprehension": 99,
        "confidence": 80,
        "district": "虹口区",
        "location": {
            "lat": 31.318441363438303,
            "lng": 121.48112760960774
        },
        "precise": 0
    },
    {
        "address": "虹口区四川北路1774弄",
        "comprehension": 100,
        "confidence": 70,
        "district": "虹口区",
        "location": {
            "lat": 31.265406773735187,
            "lng": 121.4900271222951
        },
        "precise": 1
    },
    {
        "address": "虹口区广中五村",
        "comprehension": 100,
        "confidence": 70,
        "district": "虹口区",
        "location": {
            "lat": 31.283628136130805,
            "lng": 121.48291532740316
        },
        "precise": 1
    },
    {
        "address": "虹口区花园路118弄",
        "comprehension": 100,
        "confidence": 80,
        "district": "虹口区",
        "location": {
            "lat": 31.276928870008113,
            "lng": 121.48014396507433
        },
        "precise": 1
    },
    {
        "address": "虹口区四川北路1545弄",
        "comprehension": 100,
        "confidence": 80,
        "district": "虹口区",
        "location": {
            "lat": 31.26148799735084,
            "lng": 121.48867687928306
        },
        "precise": 1
    },
    {
        "address": "虹口区奎照路786弄",
        "comprehension": 100,
        "confidence": 80,
        "district": "虹口区",
        "location": {
            "lat": 31.30600383722371,
            "lng": 121.47636461413275
        },
        "precise": 1
    },
    {
        "address": "虹口区天宝西路252弄",
        "comprehension": 100,
        "confidence": 80,
        "district": "虹口区",
        "location": {
            "lat": 31.2790654132163,
            "lng": 121.49907305878058
        },
        "precise": 1
    },
    {
        "address": "虹口区",
        "comprehension": 100,
        "confidence": 20,
        "district": "虹口区",
        "location": {
            "lat": 31.269746698931357,
            "lng": 121.51158645453457
        },
        "precise": 0
    },
    {
        "address": "杨浦区怀德路201弄",
        "comprehension": 100,
        "confidence": 80,
        "district": "杨浦区",
        "location": {
            "lat": 31.260052928759666,
            "lng": 121.53442578229522
        },
        "precise": 1
    },
    {
        "address": "杨浦区国权北路1450弄",
        "comprehension": 100,
        "confidence": 80,
        "district": "杨浦区",
        "location": {
            "lat": 31.342222216477044,
            "lng": 121.50676578784584
        },
        "precise": 1
    },
    {
        "address": "杨浦区包头路186号",
        "comprehension": 100,
        "confidence": 80,
        "district": "杨浦区",
        "location": {
            "lat": 31.316867450367035,
            "lng": 121.54526258064539
        },
        "precise": 1
    },
    {
        "address": "杨浦区",
        "comprehension": 100,
        "confidence": 20,
        "district": "杨浦区",
        "location": {
            "lat": 31.265524144657057,
            "lng": 121.53251993732523
        },
        "precise": 0
    },
    {
        "address": "宝山区城银路655弄",
        "comprehension": 100,
        "confidence": 80,
        "district": "宝山区",
        "location": {
            "lat": 31.322042743754995,
            "lng": 121.35609776567642
        },
        "precise": 1
    },
    {
        "address": "宝山区顾陈路231弄",
        "comprehension": 100,
        "confidence": 75,
        "district": "宝山区",
        "location": {
            "lat": 31.347039286298347,
            "lng": 121.40055436638193
        },
        "precise": 1
    },
    {
        "address": "宝山区宝荻路535弄",
        "comprehension": 100,
        "confidence": 70,
        "district": "宝山区",
        "location": {
            "lat": 31.366305767930893,
            "lng": 121.40110134460696
        },
        "precise": 1
    },
    {
        "address": "宝山区白杨村",
        "comprehension": 100,
        "confidence": 70,
        "district": "宝山区",
        "location": {
            "lat": 31.347963164987032,
            "lng": 121.40288564884143
        },
        "precise": 1
    },
    {
        "address": "宝山区泗塘五村",
        "comprehension": 100,
        "confidence": 50,
        "district": "宝山区",
        "location": {
            "lat": 31.340141093093475,
            "lng": 121.46657137729352
        },
        "precise": 0
    },
    {
        "address": "宝山区新沪路475弄",
        "comprehension": 100,
        "confidence": 50,
        "district": "宝山区",
        "location": {
            "lat": 31.277143907644064,
            "lng": 121.4251243695381
        },
        "precise": 0
    },
    {
        "address": "宝山区羌家村",
        "comprehension": 100,
        "confidence": 50,
        "district": "宝山区",
        "location": {
            "lat": 31.36633097424639,
            "lng": 121.39682729682103
        },
        "precise": 0
    },
    {
        "address": "宝山区朱家弄村",
        "comprehension": 100,
        "confidence": 50,
        "district": "宝山区",
        "location": {
            "lat": 31.347668338968923,
            "lng": 121.3959866625248
        },
        "precise": 0
    },
    {
        "address": "宝山区沙浦路518弄",
        "comprehension": 100,
        "confidence": 70,
        "district": "宝山区",
        "location": {
            "lat": 31.36371888532565,
            "lng": 121.38810268421648
        },
        "precise": 1
    },
    {
        "address": "宝山区沪太路3717弄",
        "comprehension": 100,
        "confidence": 80,
        "district": "宝山区",
        "location": {
            "lat": 31.35149576189261,
            "lng": 121.40711154745202
        },
        "precise": 1
    },
    {
        "address": "宝山区陈家行村",
        "comprehension": 100,
        "confidence": 50,
        "district": "宝山区",
        "location": {
            "lat": 31.33336993045677,
            "lng": 121.35713045769072
        },
        "precise": 0
    },
    {
        "address": "宝山区沪太路4332号",
        "comprehension": 100,
        "confidence": 80,
        "district": "宝山区",
        "location": {
            "lat": 31.345060121186705,
            "lng": 121.40210942305026
        },
        "precise": 1
    },
    {
        "address": "宝山区",
        "comprehension": 100,
        "confidence": 20,
        "district": "宝山区",
        "location": {
            "lat": 31.41027947347614,
            "lng": 121.4965630135246
        },
        "precise": 0
    },
    {
        "address": "闵行区报春路816弄",
        "comprehension": 100,
        "confidence": 80,
        "district": "闵行区",
        "location": {
            "lat": 31.127769513183583,
            "lng": 121.38180628123594
        },
        "precise": 1
    },
    {
        "address": "闵行区报春路817弄",
        "comprehension": 100,
        "confidence": 80,
        "district": "闵行区",
        "location": {
            "lat": 31.126165853093777,
            "lng": 121.38467636734032
        },
        "precise": 1
    },
    {
        "address": "闵行区报春路863弄",
        "comprehension": 100,
        "confidence": 80,
        "district": "闵行区",
        "location": {
            "lat": 31.12515855724963,
            "lng": 121.3818754507602
        },
        "precise": 1
    },
    {
        "address": "闵行区碧江路401弄",
        "comprehension": 100,
        "confidence": 80,
        "district": "闵行区",
        "location": {
            "lat": 31.01701611482239,
            "lng": 121.40774898504189
        },
        "precise": 1
    },
    {
        "address": "闵行区曹家塘路220弄",
        "comprehension": 100,
        "confidence": 50,
        "district": "闵行区",
        "location": {
            "lat": 31.047357691215726,
            "lng": 121.45165537362253
        },
        "precise": 0
    },
    {
        "address": "闵行区曹中村",
        "comprehension": 100,
        "confidence": 50,
        "district": "闵行区",
        "location": {
            "lat": 31.094330887952427,
            "lng": 121.43942386613757
        },
        "precise": 0
    },
    {
        "address": "闵行区漕宝路1467弄",
        "comprehension": 100,
        "confidence": 80,
        "district": "闵行区",
        "location": {
            "lat": 31.166283825765817,
            "lng": 121.38557098979771
        },
        "precise": 1
    },
    {
        "address": "闵行区昌林路430弄",
        "comprehension": 100,
        "confidence": 80,
        "district": "闵行区",
        "location": {
            "lat": 31.07063518745526,
            "lng": 121.5242409740842
        },
        "precise": 1
    },
    {
        "address": "闵行区东川路500号",
        "comprehension": 100,
        "confidence": 80,
        "district": "闵行区",
        "location": {
            "lat": 31.031366877088224,
            "lng": 121.46049901170717
        },
        "precise": 1
    },
    {
        "address": "闵行区东川路800号",
        "comprehension": 100,
        "confidence": 80,
        "district": "闵行区",
        "location": {
            "lat": 31.032028841151515,
            "lng": 121.44328397474452
        },
        "precise": 1
    },
    {
        "address": "闵行区放鹤路2323弄",
        "comprehension": 100,
        "confidence": 50,
        "district": "闵行区",
        "location": {
            "lat": 31.051288513695827,
            "lng": 121.42838369141995
        },
        "precise": 0
    },
    {
        "address": "闵行区放鹤路2号",
        "comprehension": 100,
        "confidence": 80,
        "district": "闵行区",
        "location": {
            "lat": 31.056803160646666,
            "lng": 121.48357351585031
        },
        "precise": 1
    },
    {
        "address": "闵行区富国路355弄",
        "comprehension": 100,
        "confidence": 70,
        "district": "闵行区",
        "location": {
            "lat": 31.029933856342893,
            "lng": 121.38350632441357
        },
        "precise": 1
    },
    {
        "address": "闵行区富卓路789弄",
        "comprehension": 100,
        "confidence": 80,
        "district": "闵行区",
        "location": {
            "lat": 31.03080841623792,
            "lng": 121.38716117021147
        },
        "precise": 1
    },
    {
        "address": "闵行区共和村",
        "comprehension": 100,
        "confidence": 50,
        "district": "闵行区",
        "location": {
            "lat": 31.055826367052422,
            "lng": 121.47117124048792
        },
        "precise": 0
    },
    {
        "address": "闵行区顾戴路1325弄",
        "comprehension": 100,
        "confidence": 80,
        "district": "闵行区",
        "location": {
            "lat": 31.141174162643114,
            "lng": 121.39214802341957
        },
        "precise": 1
    },
    {
        "address": "闵行区光继村",
        "comprehension": 100,
        "confidence": 50,
        "district": "闵行区",
        "location": {
            "lat": 31.00868857263331,
            "lng": 121.5409259209654
        },
        "precise": 0
    },
    {
        "address": "闵行区虹井路618弄",
        "comprehension": 100,
        "confidence": 80,
        "district": "闵行区",
        "location": {
            "lat": 31.18802589817182,
            "lng": 121.37663770082318
        },
        "precise": 1
    },
    {
        "address": "闵行区虹梅南路1008号",
        "comprehension": 100,
        "confidence": 80,
        "district": "闵行区",
        "location": {
            "lat": 31.12991973952685,
            "lng": 121.43092284177445
        },
        "precise": 1
    },
    {
        "address": "闵行区虹梅南路1781弄",
        "comprehension": 99,
        "confidence": 80,
        "district": "闵行区",
        "location": {
            "lat": 31.113478423057806,
            "lng": 121.43407742123384
        },
        "precise": 0
    },
    {
        "address": "闵行区虹梅南路2555弄",
        "comprehension": 100,
        "confidence": 75,
        "district": "闵行区",
        "location": {
            "lat": 31.103561775366988,
            "lng": 121.43927438810071
        },
        "precise": 1
    },
    {
        "address": "闵行区虹梅南路788号",
        "comprehension": 100,
        "confidence": 80,
        "district": "闵行区",
        "location": {
            "lat": 31.13224108483293,
            "lng": 121.42928514099921
        },
        "precise": 1
    },
    {
        "address": "闵行区虹梅南路990号",
        "comprehension": 100,
        "confidence": 80,
        "district": "闵行区",
        "location": {
            "lat": 31.130765009824135,
            "lng": 121.43009586172197
        },
        "precise": 1
    },
    {
        "address": "闵行区虹中路480弄",
        "comprehension": 100,
        "confidence": 80,
        "district": "闵行区",
        "location": {
            "lat": 31.191778082848597,
            "lng": 121.38765514841141
        },
        "precise": 1
    },
    {
        "address": "闵行区沪光路39弄",
        "comprehension": 100,
        "confidence": 80,
        "district": "闵行区",
        "location": {
            "lat": 31.08452255101005,
            "lng": 121.42910089853912
        },
        "precise": 1
    },
    {
        "address": "闵行区沪闵路3131弄",
        "comprehension": 100,
        "confidence": 80,
        "district": "闵行区",
        "location": {
            "lat": 31.061325513380435,
            "lng": 121.4162969907832
        },
        "precise": 1
    },
    {
        "address": "闵行区汇东村",
        "comprehension": 100,
        "confidence": 50,
        "district": "闵行区",
        "location": {
            "lat": 31.024527418578874,
            "lng": 121.57123465904151
        },
        "precise": 0
    },
    {
        "address": "闵行区剑川路100弄",
        "comprehension": 100,
        "confidence": 80,
        "district": "闵行区",
        "location": {
            "lat": 31.050560169154167,
            "lng": 121.47863777622575
        },
        "precise": 1
    },
    {
        "address": "闵行区剑川路121弄",
        "comprehension": 100,
        "confidence": 50,
        "district": "闵行区",
        "location": {
            "lat": 31.048367676565242,
            "lng": 121.47619672083293
        },
        "precise": 0
    },
    {
        "address": "闵行区剑川路150弄",
        "comprehension": 100,
        "confidence": 80,
        "district": "闵行区",
        "location": {
            "lat": 31.04974024307159,
            "lng": 121.47059255207839
        },
        "precise": 1
    },
    {
        "address": "闵行区剑川路198弄",
        "comprehension": 100,
        "confidence": 70,
        "district": "闵行区",
        "location": {
            "lat": 31.046397670646627,
            "lng": 121.46883496989064
        },
        "precise": 1
    },
    {
        "address": "闵行区剑川路综合服务中心工地宿舍",
        "comprehension": 100,
        "confidence": 50,
        "district": "闵行区",
        "location": {
            "lat": 31.040653521144332,
            "lng": 121.45296788780317
        },
        "precise": 0
    },
    {
        "address": "闵行区江川路241弄",
        "comprehension": 100,
        "confidence": 80,
        "district": "闵行区",
        "location": {
            "lat": 31.007747726019506,
            "lng": 121.42902903409832
        },
        "precise": 1
    },
    {
        "address": "闵行区江川路248弄",
        "comprehension": 100,
        "confidence": 80,
        "district": "闵行区",
        "location": {
            "lat": 31.011031943301752,
            "lng": 121.42741873164113
        },
        "precise": 1
    },
    {
        "address": "闵行区江柳路888弄",
        "comprehension": 100,
        "confidence": 50,
        "district": "闵行区",
        "location": {
            "lat": 31.10468927146431,
            "lng": 121.49254138958698
        },
        "precise": 0
    },
    {
        "address": "闵行区金阳路116弄",
        "comprehension": 100,
        "confidence": 70,
        "district": "闵行区",
        "location": {
            "lat": 31.046002183833977,
            "lng": 121.4295399902724
        },
        "precise": 1
    },
    {
        "address": "闵行区景谷中路58弄",
        "comprehension": 100,
        "confidence": 75,
        "district": "闵行区",
        "location": {
            "lat": 31.025337816029474,
            "lng": 121.42133325079433
        },
        "precise": 1
    },
    {
        "address": "闵行区老沪闵路1351弄",
        "comprehension": 100,
        "confidence": 75,
        "district": "闵行区",
        "location": {
            "lat": 31.119387921096553,
            "lng": 121.44156156375968
        },
        "precise": 1
    },
    {
        "address": "闵行区老沪闵路1498弄",
        "comprehension": 100,
        "confidence": 50,
        "district": "闵行区",
        "location": {
            "lat": 31.115698615093955,
            "lng": 121.44031974622268
        },
        "precise": 0
    },
    {
        "address": "闵行区老沪闵路2259弄",
        "comprehension": 100,
        "confidence": 80,
        "district": "闵行区",
        "location": {
            "lat": 31.09760018366756,
            "lng": 121.42117326258301
        },
        "precise": 1
    },
    {
        "address": "闵行区黎安路486号",
        "comprehension": 100,
        "confidence": 80,
        "district": "闵行区",
        "location": {
            "lat": 31.135869776874898,
            "lng": 121.37847275931897
        },
        "precise": 1
    },
    {
        "address": "闵行区莲花南路1111弄",
        "comprehension": 100,
        "confidence": 80,
        "district": "闵行区",
        "location": {
            "lat": 31.110820848001907,
            "lng": 121.41668398079689
        },
        "precise": 1
    },
    {
        "address": "闵行区莲花南路155弄",
        "comprehension": 100,
        "confidence": 75,
        "district": "闵行区",
        "location": {
            "lat": 31.137370962509983,
            "lng": 121.41250892627818
        },
        "precise": 1
    },
    {
        "address": "闵行区莲花南路988弄",
        "comprehension": 100,
        "confidence": 80,
        "district": "闵行区",
        "location": {
            "lat": 31.1169198722606,
            "lng": 121.41391998457324
        },
        "precise": 1
    },
    {
        "address": "闵行区联航路2165弄",
        "comprehension": 100,
        "confidence": 70,
        "district": "闵行区",
        "location": {
            "lat": 31.077578217184772,
            "lng": 121.51009893121686
        },
        "precise": 1
    },
    {
        "address": "闵行区龙吴路3355号",
        "comprehension": 100,
        "confidence": 80,
        "district": "闵行区",
        "location": {
            "lat": 31.100808760520863,
            "lng": 121.46078628980926
        },
        "precise": 1
    },
    {
        "address": "闵行区龙吴路5511弄",
        "comprehension": 100,
        "confidence": 80,
        "district": "闵行区",
        "location": {
            "lat": 31.050396277321234,
            "lng": 121.47244099532627
        },
        "precise": 1
    },
    {
        "address": "闵行区龙吴路5530弄",
        "comprehension": 100,
        "confidence": 70,
        "district": "闵行区",
        "location": {
            "lat": 31.049835299484318,
            "lng": 121.47467885401272
        },
        "precise": 1
    },
    {
        "address": "闵行区龙州南路58弄",
        "comprehension": 100,
        "confidence": 70,
        "district": "闵行区",
        "location": {
            "lat": 31.129233193307265,
            "lng": 121.43685821577053
        },
        "precise": 1
    },
    {
        "address": "闵行区芦胜村",
        "comprehension": 100,
        "confidence": 50,
        "district": "闵行区",
        "location": {
            "lat": 31.113515214134704,
            "lng": 121.48713826160557
        },
        "precise": 0
    },
    {
        "address": "闵行区罗秀路1339弄",
        "comprehension": 100,
        "confidence": 50,
        "district": "闵行区",
        "location": {
            "lat": 31.134816838509607,
            "lng": 121.42545898834057
        },
        "precise": 0
    },
    {
        "address": "闵行区罗秀路1501号",
        "comprehension": 100,
        "confidence": 80,
        "district": "闵行区",
        "location": {
            "lat": 31.13369882233902,
            "lng": 121.42003519933242
        },
        "precise": 1
    },
    {
        "address": "闵行区罗秀路1955弄",
        "comprehension": 100,
        "confidence": 70,
        "district": "闵行区",
        "location": {
            "lat": 31.133168865042535,
            "lng": 121.41051899991247
        },
        "precise": 1
    },
    {
        "address": "闵行区罗秀路1980弄",
        "comprehension": 100,
        "confidence": 50,
        "district": "闵行区",
        "location": {
            "lat": 31.13403172486834,
            "lng": 121.4099636674462
        },
        "precise": 0
    },
    {
        "address": "闵行区梅陇二村",
        "comprehension": 100,
        "confidence": 70,
        "district": "闵行区",
        "location": {
            "lat": 31.14070474980123,
            "lng": 121.41705551995581
        },
        "precise": 1
    },
    {
        "address": "闵行区闵驰一路197弄",
        "comprehension": 100,
        "confidence": 80,
        "district": "闵行区",
        "location": {
            "lat": 31.046160668984555,
            "lng": 121.54980324550667
        },
        "precise": 1
    },
    {
        "address": "闵行区瓶北路479弄",
        "comprehension": 100,
        "confidence": 80,
        "district": "闵行区",
        "location": {
            "lat": 31.057472757245165,
            "lng": 121.40368936278121
        },
        "precise": 1
    },
    {
        "address": "闵行区浦驰南路238弄",
        "comprehension": 100,
        "confidence": 80,
        "district": "闵行区",
        "location": {
            "lat": 31.07451346340057,
            "lng": 121.51145655955784
        },
        "precise": 1
    },
    {
        "address": "闵行区浦连路388弄",
        "comprehension": 100,
        "confidence": 50,
        "district": "闵行区",
        "location": {
            "lat": 31.06104362671443,
            "lng": 121.54246022677646
        },
        "precise": 0
    },
    {
        "address": "闵行区浦涛路100弄",
        "comprehension": 100,
        "confidence": 50,
        "district": "闵行区",
        "location": {
            "lat": 31.056318322716844,
            "lng": 121.55004192528067
        },
        "precise": 0
    },
    {
        "address": "闵行区普杰路69弄",
        "comprehension": 100,
        "confidence": 50,
        "district": "闵行区",
        "location": {
            "lat": 31.122662451085805,
            "lng": 121.42891953065666
        },
        "precise": 0
    },
    {
        "address": "闵行区普乐路425弄",
        "comprehension": 100,
        "confidence": 50,
        "district": "闵行区",
        "location": {
            "lat": 31.12098620956612,
            "lng": 121.43091314007495
        },
        "precise": 0
    },
    {
        "address": "闵行区普乐路665弄",
        "comprehension": 100,
        "confidence": 70,
        "district": "闵行区",
        "location": {
            "lat": 31.12411971896687,
            "lng": 121.42746194013617
        },
        "precise": 1
    },
    {
        "address": "闵行区七莘路1818弄",
        "comprehension": 100,
        "confidence": 50,
        "district": "闵行区",
        "location": {
            "lat": 31.144411849655285,
            "lng": 121.36841802574578
        },
        "precise": 0
    },
    {
        "address": "闵行区瑞丽路61弄",
        "comprehension": 100,
        "confidence": 70,
        "district": "闵行区",
        "location": {
            "lat": 31.010142421039447,
            "lng": 121.41626429246263
        },
        "precise": 1
    },
    {
        "address": "闵行区山花路108弄",
        "comprehension": 100,
        "confidence": 50,
        "district": "闵行区",
        "location": {
            "lat": 31.12716602829225,
            "lng": 121.38980946468544
        },
        "precise": 0
    },
    {
        "address": "闵行区上中西路1011弄",
        "comprehension": 100,
        "confidence": 70,
        "district": "闵行区",
        "location": {
            "lat": 31.134922472885403,
            "lng": 121.41775655757581
        },
        "precise": 1
    },
    {
        "address": "闵行区上中西路738弄",
        "comprehension": 100,
        "confidence": 80,
        "district": "闵行区",
        "location": {
            "lat": 31.137688474840502,
            "lng": 121.42392369439345
        },
        "precise": 1
    },
    {
        "address": "闵行区上中西路855弄",
        "comprehension": 100,
        "confidence": 50,
        "district": "闵行区",
        "location": {
            "lat": 31.136381250601033,
            "lng": 121.42117425071906
        },
        "precise": 0
    },
    {
        "address": "闵行区上中西路925弄",
        "comprehension": 100,
        "confidence": 70,
        "district": "闵行区",
        "location": {
            "lat": 31.135219206707013,
            "lng": 121.41958433979696
        },
        "precise": 1
    },
    {
        "address": "闵行区尚义路229弄",
        "comprehension": 100,
        "confidence": 80,
        "district": "闵行区",
        "location": {
            "lat": 31.048501484502985,
            "lng": 121.4574487255175
        },
        "precise": 1
    },